{"anganwadi":[{"poi":"22.75170423 75.92163113 500.0 5.0","latitude":22.7517,"longitude":75.92163,"amenity":"aanganwadi","name":"Neetu Yadav Aanganwadi","name_hindi":"नीतू यादव आंगनवाड़ी","opening_hours_hour":"Mo-Sa 09:00-15:45","address":"Shri Ram Nagar, Lasudiya Mori","personnel_count":2,"ward_no":"036","ward_name":"NIPANIYA"},{"poi":"22.75170423 75.92163113 500.0 5.0","latitude":22.7517,"longitude":75.92163,"amenity":"aanganwadi","name":"Ekikrat Mahila Bal Vikas Kendra","name_hindi":"एकीकृत महिला बाल विकास केन्द्र","opening_hours_hour":"Mo-Sa 09:00-16:00","address":"86, Bapu Gandhi Nagar","mobile":7999758748,"personnel_count":2,"ward_no":"036","ward_name":"NIPANIYA"},{"poi":"22.75170423 75.92163113 500.0 5.0","latitude":22.7517,"longitude":75.92163,"amenity":"aanganwadi","name":"Aanganwadi No 82","name_hindi":"आंगनवाडी क्र 82","opening_hours_hour":"Mo-Sa 09:00-16:00","address":"Scheme No 78, Slice 3","personnel_count":5,"ward_no":"036","ward_name":"NIPANIYA"},{"poi":"22.75170423 75.92163113 500.0 5.0","latitude":22.7517,"longitude":75.92163,"amenity":"aanganwadi","name":"Anganwadi Niranjanpur","name_hindi":"आंगनवाडी निरंजनपुर","opening_hours_hour":"Mo-Sa 09:00-16:00","address":"23, Nayi Basti, Niranjanpur","personnel_count":4,"ward_no":"036","ward_name":"NIPANIYA"},{"poi":"22.75170423 75.92163113 500.0 5.0","latitude":22.7517,"longitude":75.92163,"amenity":"aanganwadi","name":"Aanganwadi no 84","name_hindi":"आंगनवाड़ी क्र 84","opening_hours_hour":"Mo-Sa 09:00-16:00","address":"12, Near Ram Mandir, Scheme No 78","mobile":9301469808,"personnel_count":2,"ward_no":"036","ward_name":"NIPANIYA"},{"poi":"22.75170423 75.92163113 500.0 5.0","latitude":22.7517,"longitude":75.92163,"amenity":"aanganwadi","name":"Ram Mandir Aanganwadi","name_hindi":"राम मंदिर आंगनवाड़ी","opening_hours_hour":"Mo-Sa 09:00-16:00","address":"13, Ram Mandir , Kabirkhedi","mobile":7610720950,"personnel_count":2,"ward_no":"036","ward_name":"NIPANIYA"},{"poi":"22.75170423 75.92163113 500.0 5.0","latitude":22.7517,"longitude":75.92163,"amenity":"aanganwadi","name":"Kawidkhedi Laiya Colony Aanganwadi","name_hindi":"कविड़खेडी लैया कॉलोनी आंगनवाडी","opening_hours_hour":"Mo-Sa 09:00-16:00","address":"Kawidkhedi Laiya Colony","personnel_count":2,"ward_no":"036","ward_name":"NIPANIYA"},{"poi":"22.75170423 75.92163113 500.0 5.0","latitude":22.7517,"longitude":75.92163,"amenity":"aanganwadi","name":"Ashrafi Nagar Aanganwadi","name_hindi":"अशरफी नगर आंगनवाड़ी","opening_hours_hour":"Mo-Sa 09:00-16:00","address":"24, Ashrafi Nagar","personnel_count":2,"ward_no":"036","ward_name":"NIPANIYA"},{"poi":"22.75170423 75.92163113 500.0 5.0","latitude":22.7517,"longitude":75.92163,"amenity":"aanganwadi","name":"Anganwadi No 83","name_hindi":"आंगनवाड़ी क्र 83","opening_hours_hour":"Mo-Sa 09:00-15:00","address":"26, Aanganwadi Kendra , Roshan Nagar","personnel_count":3,"ward_no":"036","ward_name":"NIPANIYA"},{"poi":"22.72008642 75.89222948 493.0 10.0","latitude":22.72009,"longitude":75.89223,"amenity":"aanganwadi","name":"Adarsh Anganwadi Kendra","name_hindi":"आदर्श आँगनवाड़ी केंद्र","opening_hours_hour":"Mo-Su 9:00-16:00","address":"Ward No.49,Vinoba Nagar","mobile":7770850447,"personnel_count":6,"ward_no":"042","ward_name":"SWAMI VIVEKANAND"},{"poi":"22.686462 75.88133583 508.0 3.216","latitude":22.68646,"longitude":75.88134,"amenity":"aanganwadi","name":"Atal Bal Mission Triveni Nagar","name_hindi":"अटल बाल मिशन त्रिवेणी नगर","opening_hours_hour":"Mo-Sa 9:00-16:00","address":"Triveni Nagar","personnel_count":2,"ward_no":"064","ward_name":"CHITAVAD"},{"poi":"22.67750961 75.86221818 492.0 3.216","latitude":22.67751,"longitude":75.86222,"amenity":"aanganwadi","name":"Alat Bal Mission, Pipliyarao","name_hindi":"अटल बाल मिशन, पिपलियाराओ","opening_hours_hour":"Mo-Sa 9:00-16:00","address":"Pipliyarao","personnel_count":2,"ward_no":"074","ward_name":"VISHNAPURI"},{"poi":"22.67401614 75.88201594 505.0 6.432","latitude":22.67402,"longitude":75.88202,"amenity":"aanganwadi","name":"Atal Bal Mission, Bhavna Nagar","name_hindi":"अटल बाल मिशन, भावना नगर","opening_hours_hour":"Mo-Sa 9:00-16:00","address":"2, Bhavna Nagar","personnel_count":2,"ward_no":"075","ward_name":"PALDA"},{"poi":"22.73012336 75.81133896 506.0 10.0","latitude":22.73012,"longitude":75.81134,"amenity":"aanganwadi","name":"Aanganwadi Kendra Kramank 139","name_hindi":"आंगनवाड़ी केंद्र क्र. 139","opening_hours_hour":"Mo-Sa 9:00-15:00","address":"24/2 Babu Murai Colony","personnel_count":2,"ward_no":"015","ward_name":"BIJASAN"},{"poi":"22.73130038 75.81220021 496.0 5.0","latitude":22.7313,"longitude":75.8122,"amenity":"aanganwadi","name":"Aanganwadi Kendra Kramank 518","name_hindi":"आंगनवाड़ी केंद्र क्र. 518","opening_hours_hour":"Mo-Sa 9:00-15:00","address":"Street -7 Babu Murai Colony","mobile":9752883584,"personnel_count":2,"ward_no":"015","ward_name":"BIJASAN"},{"poi":"22.73336441 75.81237944 504.0 7.0","latitude":22.73336,"longitude":75.81238,"amenity":"aanganwadi","name":"Aanganwadi Kendra Kramank 525","name_hindi":"आंगनवाड़ी केंद्र क्र. 525","opening_hours_hour":"Mo-Sa 9:00-15:00","address":"6 Vaishnav devi colony","mobile":7869113459,"personnel_count":2,"ward_no":"015","ward_name":"BIJASAN"},{"poi":"22.73368867 75.825067 499.0 9.0","latitude":22.73369,"longitude":75.82507,"amenity":"aanganwadi","name":"Aanganwadi Kendra Kramank 21","name_hindi":"आंगनवाड़ी केंद्र क्र. 21","opening_hours_hour":"Mo-Sa 10:00-16:00","address":"112 venktesh vihar","mobile":9009244220,"personnel_count":2,"ward_no":"014","ward_name":"ASHOK NAGAR"},{"poi":"22.73268736 75.82712388 497.0 10.0","latitude":22.73269,"longitude":75.82712,"amenity":"aanganwadi","name":"Aaganwadi Kendra Kramank 59","name_hindi":"आंगनवाड़ी केंद्र क्र. 59","opening_hours_hour":"Mo-Sa 9:00-16:00","address":"330 Amrakunj Colony","mobile":7999899194,"personnel_count":2,"ward_no":"014","ward_name":"ASHOK NAGAR"},{"poi":"22.72945466 75.82808462 485.0 9.0","latitude":22.72945,"longitude":75.82808,"amenity":"aanganwadi","name":"Aangandwadi Kendra Kramank 55","name_hindi":"आंगनवाड़ी केंद्र क्र. 55","opening_hours_hour":"Mo-Sa 9:00-16:00","address":"175/5 Loknayak Nagar","mobile":7898730879,"personnel_count":2,"ward_no":"014","ward_name":"ASHOK NAGAR"},{"poi":"22.72774751 75.83319329 490.0 10.0","latitude":22.72775,"longitude":75.83319,"amenity":"aanganwadi","name":"Aanganwadi Kendra Kramank 48","name_hindi":"आंगनवाड़ी केंद्र क्र. 48","opening_hours_hour":"Mo-Sa 9:00-16:00","address":"100 Panchawati Nagar","mobile":7389068432,"personnel_count":2,"ward_no":"004","ward_name":"SUKHDEV NAGAR"},{"poi":"22.73280628 75.83492354 492.0 10.0","latitude":22.73281,"longitude":75.83492,"amenity":"aanganwadi","name":"Aanganwadi Kendra Kramank 46","name_hindi":"आंगनवाड़ी केंद्र क्र. 46","opening_hours_hour":"Mo-Sa 9:00-16:00","address":"240 Hamal Colony","mobile":7470894813,"personnel_count":2,"ward_no":"013","ward_name":"SANGAM NAGAR"},{"poi":"22.73945423 75.84206575 486.0 13.0","latitude":22.73945,"longitude":75.84207,"amenity":"aanganwadi","name":"Aanganwadi Kendra krmanak 529","name_hindi":"आंगनवाड़ी केंद्र क्र. 529","opening_hours_hour":"Mo-Sa 09:00-16:00","address":"11 Laxman pura","mobile":9074746324,"personnel_count":2,"ward_no":"013","ward_name":"SANGAM NAGAR"},{"poi":"22.74104836 75.84430178 475.0 11.0","latitude":22.74105,"longitude":75.8443,"amenity":"aanganwadi","name":"Aanganwadi Kendra Kramank 73","name_hindi":"आंगनवाड़ी केंद्र क्र. 73","opening_hours_hour":"Mo-Sa 9:00-16:00","address":"643 Govind Colony","mobile":9826724361,"personnel_count":2,"ward_no":"012","ward_name":"GOVIND COLONY"},{"poi":"22.74224749 75.84572518 492.0 9.0","latitude":22.74225,"longitude":75.84573,"amenity":"aanganwadi","name":"Aanganwadi Kendra Kramank 85","name_hindi":"आंगनवाड़ी केंद्र क्र. 85","opening_hours_hour":"Mo-Sa 9:00-16:00","address":"Street -5 Govind Colony","mobile":9977505292,"personnel_count":2,"ward_no":"012","ward_name":"GOVIND COLONY"},{"poi":"22.74385238 75.84652651 481.0 7.0","latitude":22.74385,"longitude":75.84653,"amenity":"aanganwadi","name":"Aanganwadi Kendra Kramank 10","name_hindi":"आंगनवाड़ी केंद्र क्र. 10","opening_hours_hour":"Mo-Sa 9:00-16:00","address":"Samudayik Bhawan, Valmiki Colony","personnel_count":2,"ward_no":"010","ward_name":"BANGANGA"},{"poi":"22.7410304 75.84903024 497.0 5.0","latitude":22.74103,"longitude":75.84903,"amenity":"aanganwadi","name":"Aanganwadi Kendra Kramank 63","name_hindi":"आंगनवाड़ी केंद्र क्र. 63","opening_hours_hour":"Mo-Sa 09:00-16:00","address":"262 Vrindawan Colony","mobile":9229909662,"personnel_count":2,"ward_no":"009","ward_name":"VRINDAVAN"},{"poi":"22.74019777 75.85225059 485.0 10.0","latitude":22.7402,"longitude":75.85225,"amenity":"aanganwadi","name":"Aanganwadi Kendra Kramank 58","name_hindi":"आंगनवाड़ी केंद्र क्र. 58","opening_hours_hour":"Mo-Sa 09:00-16:00","address":"93 Badal Ka Bhatta,bhadgangaIndore","mobile":9926111501,"personnel_count":2,"ward_no":"010","ward_name":"BANGANGA"},{"poi":"22.7454678 75.85074377 482.0 10.0","latitude":22.74547,"longitude":75.85074,"amenity":"aanganwadi","name":"Aanganwadi Kendra Kramank 84","name_hindi":"आंगनवाड़ी केंद्र क्र. 84","opening_hours_hour":"Mo-Sa 9:00-16:00","address":"177 Shaardha chowk","mobile":8720044976,"personnel_count":2,"ward_no":"010","ward_name":"BANGANGA"},{"poi":"22.74590478 75.84976463 482.0 9.0","latitude":22.7459,"longitude":75.84976,"amenity":"aanganwadi","name":"Aanganwadi Kendra Kramank 54","name_hindi":"आंगनवाड़ी केंद्र क्र.54","opening_hours_hour":"Mo-Sa 9:00-16:00","address":"Dhobhi Maholla,Community Hall","mobile":9009911136,"personnel_count":2,"ward_no":"010","ward_name":"BANGANGA"},{"poi":"22.73578435 75.82820856 497.0 10.0","latitude":22.73578,"longitude":75.82821,"amenity":"aanganwadi","name":"Aanganwadi Kendra Kramank 149","name_hindi":"आंगनवाड़ी केंद्र क्र. 149","address":"Sawariya Nagar 2","personnel_count":2,"ward_no":"014","ward_name":"ASHOK NAGAR"},{"poi":"22.73290696 75.83036183 489.0 5.0","latitude":22.73291,"longitude":75.83036,"amenity":"aanganwadi","name":"Aanganwadi Kendra Kramank 70","name_hindi":"आंगनवाड़ी केंद्र क्र.","opening_hours_hour":"Mo-Sa 9:00-15:00","address":"431 Rukmani Nagar","personnel_count":2,"ward_no":"004","ward_name":"SUKHDEV NAGAR"},{"poi":"22.73027848 75.82983482 499.0 8.0","latitude":22.73028,"longitude":75.82983,"amenity":"aanganwadi","name":"Aanganwadi Kendra Kramank 81","name_hindi":"आंगनवाड़ी केंद्र क्र. 81","opening_hours_hour":"Mo-Sa 09:00-15:00","address":"173/3 Krishna Bagh Colony","personnel_count":2,"ward_no":"004","ward_name":"SUKHDEV NAGAR"},{"poi":"22.73425273 75.82731078 497.0 4.0","latitude":22.73425,"longitude":75.82731,"amenity":"aanganwadi","name":"Aanganwadi Kendra Kramank 157","name_hindi":"आंगनवाड़ी केंद्र क्र.157","opening_hours_hour":"Mo-Sa 09:00-15:00","address":"67 Saket dham","personnel_count":2,"ward_no":"014","ward_name":"ASHOK NAGAR"},{"poi":"22.73159877 75.82812721 509.0 10.0","latitude":22.7316,"longitude":75.82813,"amenity":"aanganwadi","name":"Aanganwadi Kendra Krmanak 60","name_hindi":"आंगनवाड़ी केंद्र क्र. 60","opening_hours_hour":"Mo-Sa 09:00-15:00","address":"15-16 Akhand Nagar","mobile":9575904020,"personnel_count":2,"ward_no":"004","ward_name":"SUKHDEV NAGAR"},{"poi":"22.741499999999995 75.8261 549.8 3.3","latitude":22.7415,"longitude":75.8261,"amenity":"aanganwadi","name":"Aaganwadi Kendra Kramank -23","name_hindi":"आंगनवाड़ी केंद्र क्रमांक -23","opening_hours_hour":"Mo-Sa09:00-16:00","address":"251, Vandna Nagar, Indore","mobile":7987567784,"personnel_count":2,"ward_no":"016","ward_name":"NANDBAG"},{"poi":"22.732930000000003 75.82462166666666 559.3 1.3","latitude":22.73293,"longitude":75.82462,"amenity":"aanganwadi","name":"Aaganwadi Kendra Kramank 45","name_hindi":"आंगनवाड़ी केंद्र क्रमांक 45","opening_hours_hour":"Mo-Sa09:00-15:00","address":"303, Aaradhana Nagar, Indore","mobile":9826654674,"personnel_count":2,"ward_no":"014","ward_name":"ASHOK NAGAR"},{"poi":"22.731556666666666 75.82806666666667 562.0 2.1","latitude":22.73156,"longitude":75.82807,"amenity":"aanganwadi","name":"Aaganwadi Kendra Kramank 60","name_hindi":"आंगनवाड़ी केंद्र क्रमांक 60","opening_hours_hour":"Mo-Sa09:30-15:00","address":"15/16 Akhand Nagar, Near Geetanjali school, Indore","mobile":9575904020,"personnel_count":2,"ward_no":"004","ward_name":"SUKHDEV NAGAR"},{"poi":"22.731859999999998 75.83131 551.5 0.9","latitude":22.73186,"longitude":75.83131,"amenity":"aanganwadi","name":"Agandwadi Kendra Kramank 49","name_hindi":"आंगनवाड़ी केंद्र क्रमांक 49","opening_hours_hour":"Mo-Sa 9:00-16:00","address":"186, Sawariyan Nagar, Indore","mobile":9425125630,"personnel_count":2,"ward_no":"014","ward_name":"ASHOK NAGAR"},{"poi":"22.740648333333336 75.85205500000001 547.9 3.3","latitude":22.74065,"longitude":75.85206,"amenity":"aanganwadi","name":"Aaganwadi Kendra Kramank 104","name_hindi":"आंगनवाड़ी केंद्र क्रमांक 104","opening_hours_hour":"Mo-Sa10:00-16:00","address":"93, Badal Ka Bhatta, Indore","mobile":9179833248,"personnel_count":2,"ward_no":"010","ward_name":"BANGANGA"},{"poi":"22.739678333333337 75.85156666666667 545.6 1.6","latitude":22.73968,"longitude":75.85157,"amenity":"aanganwadi","name":"Aaganwadi Kendra Kramank 51","name_hindi":"आंगनवाड़ी केंद्र क्रमांक 51","opening_hours_hour":"Mo-Fr10:00-16:00","address":"Jaihind Nagar, Indore","mobile":9644955867,"personnel_count":2,"ward_no":"010","ward_name":"BANGANGA"},{"poi":"22.743443333333335 75.85037000000001 544.9 1.0","latitude":22.74344,"longitude":75.85037,"amenity":"aanganwadi","name":"Aaganwadi Kendra Kramank 57","name_hindi":"आंगनवाड़ी केंद्र क्रमांक 57","opening_hours_hour":"Mo-Sa10:00-16:00","address":"88, Bandganga colony, Indore","mobile":8109817548,"personnel_count":2,"ward_no":"010","ward_name":"BANGANGA"},{"poi":"22.75110833333333 75.84834333333333 550.0 2.9","latitude":22.75111,"longitude":75.84834,"amenity":"aanganwadi","name":"Aaganwadi Kendra Kramank 24","name_hindi":"आंगनवाड़ी केंद्र क्रमांक 24","opening_hours_hour":"Mo-Sa 10:00-16:00","address":"Govind Nagar Kharcha, Banganga, Indore","personnel_count":2,"ward_no":"018","ward_name":"SANT KABIR"},{"poi":"22.69365438 75.9059924 511.0 4.0","latitude":22.69365,"longitude":75.90599,"amenity":"aanganwadi","name":"Prince Convent High School","name_hindi":"प्रिंस कॉन्वेंट हाई स्कूल","opening_hours_hour":"Mo-Sa 10:30-16:00","address":"Gali No 14, Mayur Nagar, Musakhedi","personnel_count":18,"ward_no":"054","ward_name":"RESIDENCY"},{"poi":"22.69619983 75.92856211 527.492431640625 3.216","latitude":22.6962,"longitude":75.92856,"amenity":"aanganwadi","name":"Sanskaar Aanganwadi Bicholi Mardana","name_hindi":"संस्कार आंगनवाड़ी बिचौली मर्दाना","opening_hours_hour":"Mo-Sa 09:00-16:00","address":"Bicholi Mardana","personnel_count":2,"ward_no":"076","ward_name":"MUNDALA NAYATA"},{"poi":"22.81197133 75.90861356 472.0771484375 3.216","latitude":22.81197,"longitude":75.90861,"amenity":"aanganwadi","name":"Aanganwadi Dhaabli","name_hindi":"आंगनवाड़ी ढाबली","opening_hours_hour":"Mo-Sa 11:00-16:00","address":"Manglia ,Dhabli","personnel_count":2},{"poi":"22.80924339 75.90812498 483.16302490234375 3.216","latitude":22.80924,"longitude":75.90812,"amenity":"aanganwadi","name":"Aanganwadi Dhaabli 2","name_hindi":"आंगनवाड़ी ढाबली 2","opening_hours_hour":"Mo-Sa 09:00-16:00","address":"Manglia, Dhabli 2","mobile":9826274549,"personnel_count":3},{"poi":"22.79867069 75.91172917 478.726806640625 3.216","latitude":22.79867,"longitude":75.91173,"amenity":"aanganwadi","name":"Aanganwadi Talavali Chaanda","name_hindi":"आंगनवाड़ी तलावली चाँदा","opening_hours_hour":"Mo-Sa 10:00-16:00","address":"Talavali Chaanda,Indore","personnel_count":2,"ward_no":"035","ward_name":"LASUDIYA MORI"},{"poi":"22.78345418 75.90920989 490.74591064453125 3.216","latitude":22.78345,"longitude":75.90921,"amenity":"aanganwadi","name":"Aanganwadi Lasudiya Mori","name_hindi":"आंगनवाड़ी लसूड़िया मोरी","opening_hours_hour":"Mo-Sa 11:00-17:00","address":"Lasudiya Mori ,Indore","personnel_count":2,"ward_no":"035","ward_name":"LASUDIYA MORI"},{"poi":"22.6265522 75.749846 506.2152099609375 3.216","latitude":22.62655,"longitude":75.74985,"amenity":"aanganwadi","name":"AanganwadiBheslay","name_hindi":"#N/A","opening_hours_hour":"Mo-Sa 10:00-17:00","address":"Bheslay Rau-Pitampur Road, Indore","personnel_count":2},{"poi":"22.63985157 75.8036934 527.3026123046875 3.216","latitude":22.63985,"longitude":75.80369,"amenity":"aanganwadi","name":"Aanganwadi Rau","name_hindi":"आंगनवाड़ी राऊ","opening_hours_hour":"Mo-Sa 09:30-14:30","address":"Rau Main Road, Indore","personnel_count":2},{"poi":"22.71614992 75.81812821 505.0 4.288","latitude":22.71615,"longitude":75.81813,"amenity":"aanganwadi","name":"Vyas Nagar Anganwadi","name_hindi":"व्यास नगर आंगनवाड़ी","opening_hours_hour":"Mo-Sa 8:00-15:00","address":"Vyas Nagar, Jayshri Nagar, Chandan Nagar, Indore, Madhya Pradesh 452006","mobile":9753367042,"personnel_count":2,"ward_no":"001","ward_name":"SIRPUR"},{"poi":"22.68693072 75.83262725 506.0 4.5509996","latitude":22.68693,"longitude":75.83263,"amenity":"aanganwadi","name":"Aganwadi kendra","name_hindi":"अगंवड़ी केंद्र","opening_hours_hour":"Mo-Sa 10:30-14:00","address":"120 Privahan Nagar","personnel_count":5,"ward_no":"082","ward_name":"SUDAMA NAGAR"},{"poi":"22.75951984 75.8702179 481.0 4.5509996","latitude":22.75952,"longitude":75.87022,"amenity":"aanganwadi","name":"Anganwadi","name_hindi":"आंगनवाडी","opening_hours_hour":"Mo-Sa 09:00-16:00","address":"Ravidas nagar, Indore","personnel_count":2,"ward_no":"022","ward_name":"PANDIT DINDAYAL UPADHYAY"},{"poi":"22.73994725 75.89794321 498.573974609375 4.288","latitude":22.73995,"longitude":75.89794,"amenity":"aanganwadi","name":"Anganwadi","name_hindi":"आंगनवाडी","opening_hours_hour":"Mo-Sa 09:00-16:00","address":"Krishna bagh 3","mobile":8435181958,"personnel_count":2,"ward_no":"030","ward_name":"SANT RAVIDAS"},{"poi":"22.73921264 75.89749857 499.4620361328125 4.288","latitude":22.73921,"longitude":75.8975,"amenity":"aanganwadi","name":"Krishna bagh anganwadi (mini)","name_hindi":"कृष्ण बाघ आंगनवाडी","opening_hours_hour":"Mo-Sa 09:00-16:00","address":"358 Krishna bagh,indore","mobile":8827427167,"personnel_count":1,"ward_no":"030","ward_name":"SANT RAVIDAS"},{"poi":"22.74167531 75.89819433 522.6824340820312 4.288","latitude":22.74168,"longitude":75.89819,"amenity":"aanganwadi","name":"Anganwadi Kendra","name_hindi":"अगंवड़ी केंद्र","opening_hours_hour":"Mo-Sa 09:00-16:00","address":"Barfani Dham","personnel_count":3,"ward_no":"030","ward_name":"SANT RAVIDAS"},{"poi":"22.73736024 75.89623923 500.3231201171875 4.288","latitude":22.73736,"longitude":75.89624,"amenity":"aanganwadi","name":"Anganwadi","name_hindi":"आंगनवाडी","opening_hours_hour":"Mo-Sa 09:00-16:00","address":"856,Krishna bagh colony,Indore","mobile":7888788421,"personnel_count":2,"ward_no":"030","ward_name":"SANT RAVIDAS"},{"poi":"22.74090699 75.89575205 500.74658203125 4.288","latitude":22.74091,"longitude":75.89575,"amenity":"aanganwadi","name":"Anganwadi","name_hindi":"आंगनवाडी","opening_hours_hour":"Mo-Sa 09:00-16:00","address":"228/2Malviya nagar","mobile":9407137295,"personnel_count":2,"ward_no":"030","ward_name":"SANT RAVIDAS"},{"poi":"22.7321202121675 75.88071964681149 494.0 9.0","latitude":22.73212,"longitude":75.88072,"amenity":"aanganwadi","name":"Aanganwadi kendra 88","name_hindi":"#N/A","opening_hours_hour":"mo-sa 09:00-16:00","address":"Lala Ka bageecha ward no. 45, Indore","mobile":9201352078,"personnel_count":1,"ward_no":"045","ward_name":"DR. BHIMRAO AMBEDAR"},{"poi":"22.731654471717775 75.87929497472942 490.0 6.0","latitude":22.73165,"longitude":75.87929,"amenity":"aanganwadi","name":"Ekikrat Baal Vikas Seva Pariyojana","name_hindi":"एकीकृत बाल विकास सेवा परियोजना","opening_hours_hour":"mo-sa09:00-16:00","address":"ward no. 46 Gotu Ki Chaal, Indore","mobile":9131491186,"personnel_count":2,"ward_no":"046","ward_name":"SOMNATH"},{"poi":"22.732349999999997 75.88020166666666 548.6 1.0","latitude":22.73235,"longitude":75.8802,"amenity":"aanganwadi","name":"Aanganwadi Centre No. 87","name_hindi":"a","opening_hours_hour":"mo-sa 09:00-14:00","address":"Aanganwadi Centre No. 87 Lala Ka Bageecha","personnel_count":2,"ward_no":"045","ward_name":"DR. BHIMRAO AMBEDAR"},{"poi":"22.73772139 75.8998068 500.74151611328125 4.288","latitude":22.73772,"longitude":75.89981,"amenity":"aanganwadi","name":"Anganwadi","name_hindi":"आंगनवाडी","opening_hours_hour":"Mo-Sa 09:00-16:00","address":"89-Swarn bagh colony","mobile":9753128080,"personnel_count":2,"ward_no":"030","ward_name":"SANT RAVIDAS"},{"poi":"22.719353333333334 75.83166833333333 555.8 1.0","latitude":22.71935,"longitude":75.83167,"amenity":"aanganwadi","name":"Anganwadi center 56","name_hindi":"आंगनवाङी क्रमांक 56","opening_hours_hour":"Mo-Sa09:00-16:00","address":"6 hukumchand Colony","personnel_count":2,"ward_no":"006","ward_name":"MALHARGANJ"}]}