{"dentists":[{"latitude":22.67749512,"longitude":75.83814692,"amenity":"dental_clinic","operator":"private","name":"32 Gems Dental Clinic","name_hindi":"३२ जेम्स डेंटल क्लिनिक","opening_hours":"Mo-Sa 10:00-13:00 ; 17:00-20:00","personnel_count":1,"mobile":8349382906,"rate_list":"no","ward_no":"078","ward_name":"CHOITHRAM"},{"latitude":22.72314045,"longitude":75.88213337,"amenity":"dental_clinic","operator":"private","name":"Aarogyam Orthodontic And Dental Clinic","name_hindi":"आरोग्यम ऑर्थोडॉन्तिक एंड डेंटल क्लिनिक","personnel_count":2,"mobile":9425065713,"rate_list":"no","ward_no":"047","ward_name":"SARDAR VALLABHBHAI"},{"latitude":22.70813309,"longitude":75.85608417,"amenity":"dental_clinic","operator":"private","name":"Aarti Dental Clinic","name_hindi":"आरती डेंटल क्लिनिक","opening_hours":"Mo-Sa 11:00-13:00;17:30-20:30","personnel_count":2,"mobile":8878806183,"rate_list":"no","ward_no":"061","ward_name":"TATYA SARVATE"},{"latitude":22.73471466,"longitude":75.83077193,"amenity":"dental_clinic","operator":"private","name":"Aditya Dental Clinic","name_hindi":"आदित्य डेंटल क्लिनिक","opening_hours":"10:00-13:00;17:00-21:00","personnel_count":1,"mobile":8962129759,"rate_list":"no","ward_no":"014","ward_name":"ASHOK NAGAR"},{"latitude":22.69396745,"longitude":75.85907732,"amenity":"dental_clinic","operator":"private","name":"Advance Dental Care","name_hindi":"एडवांस डेंटल केयर","personnel_count":1,"rate_list":"no","ward_no":"074","ward_name":"VISHNAPURI"},{"latitude":22.68403242,"longitude":75.82909188,"amenity":"dental_clinic","operator":"private","name":"Advanced Dental Clinic","name_hindi":"Advanced Dental Clinic","opening_hours":"10:00-13:00;18:00-20:30","personnel_count":5,"mobile":9926094777,"rate_list":"no","ward_no":"081","ward_name":"ANNAPURNA"},{"latitude":22.70793627,"longitude":75.85172451,"amenity":"dental_clinic","operator":"private","name":"Airen'S Dental Clinic","name_hindi":"ऐरेन्स डेंटल क्लिनिक","opening_hours":"Mo-Sa 11:00-14:00;18:00-21:00","personnel_count":1,"mobile":9009000079,"rate_list":"no","ward_no":"067","ward_name":"MAHARAJA HOLKAR"},{"latitude":22.69069453,"longitude":75.86626122,"amenity":"dental_clinic","operator":"private","name":"Aishwarya Dental Clinic","name_hindi":"ऐश्वर्या डेंटल क्लिनिक","opening_hours":"Mo-Sa 10:30-13:00;17:30-20:00","personnel_count":2,"phone_number":7312362621,"rate_list":"no","ward_no":"074","ward_name":"VISHNAPURI"},{"latitude":22.72269224,"longitude":75.89314444,"amenity":"dental_clinic","operator":"private","name":"Aliza Poly Clinic","name_hindi":"अलीजा पाली क्लिनिक","opening_hours":"Mo-Sa 10:00-21:00","personnel_count":3,"phone_number":7314956054,"rate_list":"no","ward_no":"042","ward_name":"SWAMI VIVEKANAND"},{"latitude":22.6950951,"longitude":75.83636402,"amenity":"dental_clinic","operator":"private","name":"Anpurna Dental Clinic","name_hindi":"अन्नपूर्णा दंत चिकित्सा क्लिनिक","opening_hours":"Mo-Su 11:00-14:00;18:00-21:00","personnel_count":3,"mobile":9827227488,"rate_list":"no","ward_no":"071","ward_name":"DRAVID NAGAR"},{"latitude":22.71569424,"longitude":75.84399434,"amenity":"dental_clinic","operator":"private","name":"Apoorva Dental Clinic","name_hindi":"अपूर्व डेंटल क्लिनिक","opening_hours":"Mo-Sa 11:00-14:00;18:00-21:00","personnel_count":2,"rate_list":"no","ward_no":"069","ward_name":"JAWAHAR MARG"},{"latitude":22.71217915,"longitude":75.88038856,"amenity":"dental_clinic","operator":"private","name":"Ashirwad Dental Clinic","name_hindi":"आशिरवाद दंत चिकित्सा क्लिनिक","opening_hours":"Mo-Sa 10:00-14:00;18:00-21:00","personnel_count":2,"mobile":9893708283,"rate_list":"no","ward_no":"055","ward_name":"SAUTH TUKOGANJ"},{"latitude":22.76941359,"longitude":75.8796419,"amenity":"dental_clinic","operator":"private","name":"Atharv Dental Clinic","name_hindi":"#N/A","opening_hours":"Mo-Fr 11:00-14:00; 18:30-21:00","personnel_count":1,"mobile":9893999897,"rate_list":"no","ward_no":"033","ward_name":"SUKHLIYA"},{"latitude":22.76938942,"longitude":75.87966246,"amenity":"dental_clinic","operator":"private","name":"Atharva Dental Clinic","name_hindi":"अथर्व डेंटल क्लिनिक","opening_hours":"Mo-Sa 11:00-14:00;18:30-21:00","personnel_count":2,"mobile":9893999897,"rate_list":"no","ward_no":"033","ward_name":"SUKHLIYA"},{"latitude":22.69768987,"longitude":75.83342992,"amenity":"dental_clinic","operator":"private","name":"Atre'S Dental Clinic","name_hindi":"अत्रे डेंटल क्लिनिक","opening_hours":"Mo-Sa 10:00-14:00;18:00-21:00","personnel_count":2,"phone_number":7314087489,"rate_list":"no","ward_no":"071","ward_name":"DRAVID NAGAR"},{"latitude":22.74155398,"longitude":75.90017649,"amenity":"dental_clinic","operator":"private","name":"Ayushmaan Dental Clinic","name_hindi":"आयुष्मान डेंटल क्लीनिक","opening_hours":"Sa-Su 10:00-14:30; 17:00-21:00","personnel_count":3,"mobile":9039690496,"rate_list":"no","ward_no":"030","ward_name":"SANT RAVIDAS"},{"latitude":22.74156285,"longitude":75.90020747,"amenity":"dental_clinic","operator":"private","name":"Ayushman Dental Clinic","name_hindi":"आयुष्मान डेंटल क्लिनिक","opening_hours":"Mo-Sa 10:30-14:30;17:30-21:00 ; Su 11:00-13:00","personnel_count":0,"mobile":9300619220,"rate_list":"no","ward_no":"030","ward_name":"SANT RAVIDAS"},{"latitude":22.72020167,"longitude":75.84278833,"amenity":"dental_clinic","operator":"private","name":"Badlani Multi Speciality Dental Clinic","name_hindi":"बदलानि मल्टी इस्पेशलिटी ङेंटल क्लिनिक","opening_hours":"Mo-Sa11:30-14:30","personnel_count":1,"mobile":9685006850,"rate_list":"no","ward_no":"006","ward_name":"MALHARGANJ"},{"latitude":22.69400401,"longitude":75.84399619,"amenity":"dental_clinic","operator":"private","name":"Basant Dental Care","name_hindi":"बसंत डेंटल केअर","opening_hours":"Mo-Sa 9:00-11:00-18:00-20:00","personnel_count":3,"mobile":9755658393,"rate_list":"no","ward_no":"072","ward_name":"LOKMANYA NAGAR"},{"latitude":22.72578449,"longitude":75.89446269,"amenity":"dental_clinic","operator":"private","name":"Best Smile Dental Care","name_hindi":"बेस्ट स्माइल डेंटल केअर","opening_hours":"Mo-Sa 10:00-21:00","personnel_count":2,"mobile":6260313706,"rate_list":"no","ward_no":"043","ward_name":"SHRINAGAR"},{"latitude":22.6990925,"longitude":75.86686742,"amenity":"dental_clinic","operator":"private","name":"Care And Cure Dental Clinic","name_hindi":"केयर एंड क्योर डेंटल क्लिनिक","opening_hours":"Mo-Fr 13:00-20:00","personnel_count":2,"phone_number":7312467642,"rate_list":"no","ward_no":"063","ward_name":"NAVLAKHA"},{"latitude":22.75260303,"longitude":75.89063215,"amenity":"dental_clinic","operator":"private","name":"Care Dental Clinic & Implant Center","name_hindi":"#N/A","opening_hours":"Mo-Sa 16:30-20:30","personnel_count":2,"mobile":9827022331,"rate_list":"no","ward_no":"029","ward_name":"DR. SHYAM PRASAD MUKHARJI"},{"latitude":22.70256519,"longitude":75.83992342,"amenity":"dental_clinic","operator":"private","name":"Carv's","name_hindi":"#N/A","opening_hours":"Mo-Sa 10:00-14:00;18:00-21:30","personnel_count":1,"mobile":9827272302,"rate_list":"no","ward_no":"071","ward_name":"DRAVID NAGAR"},{"latitude":22.74659729,"longitude":75.872523,"amenity":"dental_clinic","operator":"private","name":"Cbc Dental Clinic","name_hindi":"सी.बी.सी. डेंटल हॉस्पिटल","opening_hours":"Mo-Sa 10:30-14:30;18:30-21:30","personnel_count":2,"mobile":9826263946,"rate_list":"no","ward_no":"023","ward_name":"SWARGIYA RAJESH JOSHI"},{"latitude":22.71948366,"longitude":75.90076514,"amenity":"dental_clinic","operator":"private","name":"Chaitanya Dental Clinic","name_hindi":"चैतन्य डेंटल क्लिनिक","opening_hours":"Mo-Sa 10:00-13:00;17:00-21:00\n Su 10:00-13:00","personnel_count":3,"mobile":9826565844,"rate_list":"no","ward_no":"049","ward_name":"TILAKNAGAR"},{"latitude":22.71839421,"longitude":75.88351758,"amenity":"dental_clinic","operator":"private","name":"Chauhan'S Ent And Dental Clinic","name_hindi":"चौहान ई एन टी एंड डेंटल क्लीनिक","opening_hours":"Mo-Su 09:30-16:30","personnel_count":5,"mobile":9425065064,"rate_list":"no","ward_no":"055","ward_name":"SAUTH TUKOGANJ"},{"latitude":22.74977923,"longitude":75.8744811,"amenity":"dental_clinic","operator":"private","name":"Chhabra Dental Clinic","name_hindi":"छाबरा डेंटल क्लिनिक","opening_hours":"Mo-Su 10:00-14:00;18:00-21:00","personnel_count":2,"mobile":7828876007,"rate_list":"no","ward_no":"027","ward_name":"PASHUPATI NATH"},{"latitude":22.74283907,"longitude":75.87542976,"amenity":"dental_clinic","operator":"private","name":"Chopra Dental Clinic","name_hindi":"चोपड़ा डेंटल क्लिनिक","opening_hours":"Mo-Sa 10:00-14:00;18:00-22:00","personnel_count":2,"mobile":9425053654,"rate_list":"no","ward_no":"025","ward_name":"NANDA NAGAR"},{"latitude":22.71962486,"longitude":75.84667249,"amenity":"dental_clinic","operator":"private","name":"City Dental Clinic","name_hindi":"सिटी डेंटल क्लिनिक","opening_hours":"Mo-Sa 17:00-22:00\n Su 10:00-14:00","personnel_count":1,"mobile":9425312777,"rate_list":"no","ward_no":"069","ward_name":"JAWAHAR MARG"},{"latitude":22.71957167,"longitude":75.84670167,"amenity":"dental_clinic","operator":"private","name":"City Dental Clinic","name_hindi":"सिटी डेंटल क्लिनिक","opening_hours":"Mo-Sa17:00-22:00","personnel_count":2,"mobile":9754795777,"rate_list":"no","ward_no":"069","ward_name":"JAWAHAR MARG"},{"latitude":22.72775423,"longitude":75.89458156,"amenity":"dental_clinic","operator":"private","name":"Complete Dental Solution","name_hindi":"कम्पलीट डेंटल सलूशन","opening_hours":"Mo-Sa 11:00-14:00;17:00-21:00","personnel_count":1,"mobile":9827271337,"rate_list":"no","ward_no":"043","ward_name":"SHRINAGAR"},{"latitude":22.71648022,"longitude":75.88497315,"amenity":"dental_clinic","operator":"private","name":"D Dental Clinic","name_hindi":"द डेंटल क्लीनिक","opening_hours":"Mo-Sa 18:00-21:00","personnel_count":6,"mobile":9039089978,"rate_list":"no","ward_no":"048","ward_name":"GITA BHAVAN"},{"latitude":22.70767148,"longitude":75.82522605,"amenity":"dental_clinic","operator":"private","name":"Daant Ka Dawakhana","name_hindi":"दांत का दवाखाना","opening_hours":"Mo-Sa 10:00-20:00","personnel_count":6,"mobile":9926777225,"rate_list":"no","ward_no":"002","ward_name":"CHANDAN NAGAR"},{"latitude":22.68799996,"longitude":75.83679365,"amenity":"dental_clinic","operator":"private","name":"Daant Ka Dawakhana","name_hindi":"दांत का दवाखाना","opening_hours":"Mo-Sa 08:00-19:30","personnel_count":5,"mobile":9399672170,"rate_list":"no","ward_no":"081","ward_name":"ANNAPURNA"},{"latitude":22.67412046,"longitude":75.87996573,"amenity":"dental_clinic","operator":"private","name":"Daant Ka Dawakhana","name_hindi":"दांत का दवाखाना","opening_hours":"Mo-Sa 08:30-18:30","personnel_count":5,"mobile":9713738702,"rate_list":"no","ward_no":"075","ward_name":"PALDA"},{"latitude":22.71653418,"longitude":75.85660327,"amenity":"dental_clinic","operator":"private","name":"Daat Ka Davakhana","name_hindi":"दात का दवाखाना","opening_hours":"Mo-Sa 11:00-14:30","personnel_count":2,"phone_number":7312342227,"rate_list":"no","ward_no":"059","ward_name":"HARSIDDHI"},{"latitude":22.71598338,"longitude":75.85142599,"amenity":"dental_clinic","operator":"private","name":"Daat Ka Davakhana","name_hindi":"दात का दवाखाना","opening_hours":"Mo-Sa 13:30-16:00","personnel_count":1,"mobile":9926640030,"rate_list":"no","ward_no":"069","ward_name":"JAWAHAR MARG"},{"latitude":22.68826442,"longitude":75.82843484,"amenity":"dental_clinic","operator":"private","name":"Dant Ka Dawakhana","name_hindi":"दन्त का दवखाना","personnel_count":1,"rate_list":"no","ward_no":"082","ward_name":"SUDAMA NAGAR"},{"latitude":22.71885188,"longitude":75.85297315,"amenity":"dental_clinic","operator":"private","name":"Deep Chand Gola","name_hindi":"डीप चंद गोला","opening_hours":"Mo-Sa 9:00-20:00\n Su 11:00-14:00","personnel_count":1,"mobile":9406666520,"rate_list":"no","ward_no":"058","ward_name":"IMLI BAZAR"},{"latitude":22.73212313,"longitude":75.88801999,"amenity":"dental_clinic","operator":"private","name":"Dental & Oroficial Health Centre","name_hindi":"डेंटल & ओरोफिशल हेल्थ सेन्टर","opening_hours":"Mo-Fr 19:00-21:00","personnel_count":1,"mobile":9302341122,"rate_list":"no","ward_no":"045","ward_name":"DR. BHIMRAO AMBEDAR"},{"latitude":22.69396466,"longitude":75.8287231,"amenity":"dental_clinic","operator":"private","name":"Dental And Hair Clinic(Dr S K Khatri)","name_hindi":"दांतों का अस्पताल","opening_hours":"mo-sa 09:00-12:00;17:00-21:00","personnel_count":2,"mobile":9926052982,"rate_list":"no","ward_no":"083","ward_name":"GUSHMATA NAGAR"},{"latitude":22.69921457,"longitude":75.85267319,"amenity":"dental_clinic","operator":"private","name":"Dental And Orthodontic Center","name_hindi":"डेंटल एंड ऑर्थोडोंतिक सेन्टर","opening_hours":"Mo-Sa 11:00-12:00 ; 16:00-20:00","personnel_count":1,"phone_number":9827036881,"rate_list":"no","ward_no":"066","ward_name":"SHAHID HEMU COLONY"},{"latitude":22.73829522,"longitude":75.88310658,"amenity":"dental_clinic","operator":"private","name":"Dental Braces","name_hindi":"चिकित्सकीय ब्रेस क्लीनिक","personnel_count":2,"mobile":9669604142,"rate_list":"no","ward_no":"026","ward_name":"JEEN MATA"},{"latitude":22.72410855,"longitude":75.85709592,"amenity":"dental_clinic","operator":"private","name":"Dental Care","name_hindi":"डेंटल केयर","opening_hours":"Mo-Sa 10:30-14:00;18:00-21:00; Su 10:30-14:00","personnel_count":3,"mobile":9584387675,"rate_list":"no","ward_no":"057","ward_name":"DEVI AHILYABAI"},{"latitude":22.67095666,"longitude":75.8294185,"amenity":"dental_clinic","operator":"private","name":"Dental Care","name_hindi":"डेंटल केयर","opening_hours":"Mo-Sa 17:00-21:00","personnel_count":1,"mobile":9584405899,"rate_list":"no","ward_no":"080","ward_name":"DR. RAJENDRA PRASAD"},{"latitude":22.71545577,"longitude":75.84511584,"amenity":"dental_clinic","operator":"private","name":"Dental Care Clinic","name_hindi":"डेंटल केअर क्लिनिक","opening_hours":"Mo-Sa 10:30-13:00;18:00-20:00","personnel_count":3,"rate_list":"no","ward_no":"069","ward_name":"JAWAHAR MARG"},{"latitude":22.72318885,"longitude":75.8576808,"amenity":"dental_clinic","operator":"private","name":"Dental Care World","name_hindi":"डेंटल केयर वर्ल्ड","opening_hours":"10:00-13:000;18:00-20:30","personnel_count":2,"phone_number":7312536006,"rate_list":"no","ward_no":"057","ward_name":"DEVI AHILYABAI"},{"latitude":22.75664898,"longitude":75.88874113,"amenity":"dental_clinic","operator":"private","name":"Dental Clinic","name_hindi":"डेंटल क्लीनिक","opening_hours":"Mo-Sa 10:00-13:00;17:00-20:30","personnel_count":5,"phone_number":7315024250,"rate_list":"no","ward_no":"029","ward_name":"DR. SHYAM PRASAD MUKHARJI"},{"latitude":22.73683396,"longitude":75.9002454,"amenity":"dental_clinic","operator":"private","name":"Dental Clinic","name_hindi":"डेंटल क्लीनिक","opening_hours":"Mo-Sa 10:00-14:00 ; 17:00-21:00","personnel_count":0,"mobile":9993136216,"rate_list":"no","ward_no":"037","ward_name":"SAI KRUPA"},{"latitude":22.72557813,"longitude":75.89274552,"amenity":"dental_clinic","operator":"private","name":"Dental Clinic","name_hindi":"डेंटल क्लीनिक","opening_hours":"Mo-Sa 10:00-14:00; 17:00-21:00","personnel_count":2,"phone_number":7312566175,"mobile":9826185879,"rate_list":"no","ward_no":"043","ward_name":"SHRINAGAR"},{"latitude":22.72643485,"longitude":75.89431781,"amenity":"dental_clinic","operator":"private","name":"Dental Clinic","name_hindi":"डेंटल क्लीनिक","opening_hours":"Mo-Sa 09:00-14:00","personnel_count":1,"phone_number":7312563604,"rate_list":"no","ward_no":"043","ward_name":"SHRINAGAR"},{"latitude":22.72638351,"longitude":75.89434335,"amenity":"dental_clinic","operator":"private","name":"Dental Clinic","name_hindi":"डेंटल क्लीनिक","opening_hours":"Mo-Sa 10:00-13:00;17:00-19:00","personnel_count":3,"phone_number":7312563356,"rate_list":"no","ward_no":"043","ward_name":"SHRINAGAR"},{"latitude":22.72673843,"longitude":75.90062697,"amenity":"dental_clinic","operator":"private","name":"Dental Clinic","name_hindi":"डेंटल क्लीनिक","opening_hours":"Mo-Sa 10:00-13:00;17:00-20:00","personnel_count":2,"mobile":9893383468,"rate_list":"no","ward_no":"042","ward_name":"SWAMI VIVEKANAND"},{"latitude":22.72236323,"longitude":75.8519401,"amenity":"dental_clinic","operator":"private","name":"Dental Clinic","name_hindi":"डेंटल क्लीनिक","opening_hours":"Sa-Su 18:00-21:00","personnel_count":2,"mobile":9827070009,"rate_list":"no","ward_no":"058","ward_name":"IMLI BAZAR"},{"latitude":22.71399423,"longitude":75.85595969,"amenity":"dental_clinic","operator":"private","name":"Dental Clinic","name_hindi":"डेंटल क्लीनिक","opening_hours":"Mo-Sa 11:30-13:00","personnel_count":1,"mobile":9826066750,"rate_list":"no","ward_no":"059","ward_name":"HARSIDDHI"},{"latitude":22.71344878,"longitude":75.8566482,"amenity":"dental_clinic","operator":"private","name":"Dental Clinic","name_hindi":"डेंटल क्लीनिक","personnel_count":3,"mobile":9039622698,"rate_list":"no","ward_no":"059","ward_name":"HARSIDDHI"},{"latitude":22.68092434,"longitude":75.84326487,"amenity":"dental_clinic","operator":"private","name":"Dental Clinic","name_hindi":"डेंटल क्लीनिक","opening_hours":"Mo-Sa 09:30-20:00","personnel_count":5,"mobile":9893717144,"rate_list":"no","ward_no":"078","ward_name":"CHOITHRAM"},{"latitude":22.68092265,"longitude":75.84325677,"amenity":"dental_clinic","operator":"private","name":"Dental Clinic","name_hindi":"डेंटल क्लीनिक","opening_hours":"Mo-Fr 18:00-20:00","personnel_count":1,"mobile":9893717144,"rate_list":"no","ward_no":"078","ward_name":"CHOITHRAM"},{"latitude":22.68083199,"longitude":75.83481946,"amenity":"dental_clinic","operator":"private","name":"Dental Clinic","name_hindi":"डेंटल क्लीनिक","opening_hours":"Mo-Sa 10:00-14:00 ; 17:00-20:00","personnel_count":1,"mobile":9826049045,"rate_list":"no","ward_no":"080","ward_name":"DR. RAJENDRA PRASAD"},{"latitude":22.7646093,"longitude":75.90232016,"amenity":"dental_clinic","operator":"private","name":"Dental Clinic","name_hindi":"डेंटल क्लीनिक","opening_hours":"Mo-Sa 09:30-13:30; 18:00-21:00","personnel_count":1,"mobile":7024119407,"rate_list":"no","ward_no":"031","ward_name":"MAHARAJA CHATRASAL"},{"latitude":22.70733527,"longitude":75.87758299,"amenity":"dental_clinic","operator":"private","name":"Dental Cosmos","name_hindi":"डेंटल कॉसमॉस","opening_hours":"Mo-Sa 10:30-14:00;18:00-20:30","personnel_count":1,"mobile":9977244144,"rate_list":"no","ward_no":"063","ward_name":"NAVLAKHA"},{"latitude":22.72758928,"longitude":75.88490206,"amenity":"dental_clinic","operator":"private","name":"Dental Excellence Clinic And Implant Centre","name_hindi":"डेंटल एक्सीलेंस क्लीनिक एंड इंप्लांट सेंटर","opening_hours":"Mon-Sat 11:00-16:00","personnel_count":3,"mobile":9229221015,"rate_list":"no","ward_no":"043","ward_name":"SHRINAGAR"},{"latitude":22.74671813,"longitude":75.87221627,"amenity":"dental_clinic","operator":"private","name":"Dental Hospital","name_hindi":"दाँतों का अस्पताल","opening_hours":"Mo-Sa 10:30-14:30;17:30-21:00","personnel_count":2,"mobile":9406615965,"rate_list":"no","ward_no":"023","ward_name":"SWARGIYA RAJESH JOSHI"},{"latitude":22.69851703,"longitude":75.86719592,"amenity":"dental_clinic","operator":"private","name":"Dental Imagica","name_hindi":"डेंटल इमैजिका","opening_hours":"Mo-Sa 10:00-14:00 ; 17:00-20:30 ; Su 11:00- 14:00","personnel_count":1,"mobile":8989154767,"rate_list":"no","ward_no":"063","ward_name":"NAVLAKHA"},{"latitude":22.71876952,"longitude":75.88665809,"amenity":"dental_clinic","operator":"private","name":"Dental Implant And Laser Centre","name_hindi":"डेंटल इंप्लांट एंड लेजर सेंटर","opening_hours":"Mo-Sa 10:00-20:30","personnel_count":5,"rate_list":"no","ward_no":"048","ward_name":"GITA BHAVAN"},{"latitude":22.76310667,"longitude":75.92365167,"amenity":"dental_clinic","operator":"private","name":"Dental Medical Clinic","name_hindi":"ङेन्टल मेङिकल क्लिनिक","opening_hours":"Mo-Sa10:00-13:00;17:00-20:00","personnel_count":0,"mobile":9893293599,"rate_list":"no","ward_no":"036","ward_name":"NIPANIYA"},{"latitude":22.75712303,"longitude":75.89824816,"amenity":"dental_clinic","operator":"private","name":"Dental Perfection","name_hindi":"#N/A","opening_hours":"Mo-Sa 17:00-21:00","personnel_count":6,"phone_number":7313554808,"mobile":9926280808,"rate_list":"no","ward_no":"031","ward_name":"MAHARAJA CHATRASAL"},{"latitude":22.71666022,"longitude":75.89593803,"amenity":"dental_clinic","operator":"private","name":"Dental Planet","name_hindi":"दंत चिकित्सा ग्रह","opening_hours":"Mo-fr 11:00-20: 30;sa-su 11:00-13:00","personnel_count":4,"mobile":9301665066,"rate_list":"no","ward_no":"049","ward_name":"TILAKNAGAR"},{"latitude":22.72209997,"longitude":75.8949487,"amenity":"dental_clinic","operator":"private","name":"Dental Smile","name_hindi":"डेंटल स्माइल","opening_hours":"Mo-Sa 10:30-15:00","personnel_count":1,"mobile":9407156799,"rate_list":"no","ward_no":"042","ward_name":"SWAMI VIVEKANAND"},{"latitude":22.7390073,"longitude":75.88085768,"amenity":"dental_clinic","operator":"private","name":"Dentist","name_hindi":"दंत चिकित्सक","opening_hours":"Mo-Fr 10:00-15:00;18:00-21:00","personnel_count":3,"mobile":9977783283,"rate_list":"no","ward_no":"026","ward_name":"JEEN MATA"},{"latitude":22.72853332,"longitude":75.89706482,"amenity":"dental_clinic","operator":"private","name":"Dento Surgical Center","name_hindi":"डेंट सर्जिकल सेन्टर","opening_hours":"Mo-Sa 10:00-11:00;17:00-20:00","personnel_count":5,"mobile":9826056487,"rate_list":"no","ward_no":"042","ward_name":"SWAMI VIVEKANAND"},{"latitude":22.7394262,"longitude":75.88074648,"amenity":"dental_clinic","operator":"private","name":"Dev Dental And Smile Clinic","name_hindi":"देव दंत और मुस्कान क्लिनिक","opening_hours":"Mo-Sa 10:00-13:30;17:30-21:00","personnel_count":2,"mobile":9630696800,"rate_list":"no","ward_no":"026","ward_name":"JEEN MATA"},{"latitude":22.72909251,"longitude":75.8211054,"amenity":"dental_clinic","operator":"private","name":"Devdatta Dental Clinic","name_hindi":"#N/A","opening_hours":"Mo-Fr 9:30-13:00;17:30-21:00","personnel_count":1,"mobile":7400744123,"rate_list":"no","ward_no":"014","ward_name":"ASHOK NAGAR"},{"latitude":22.68945355,"longitude":75.84365419,"amenity":"dental_clinic","operator":"private","name":"Dhanvantari Dental Clinic","name_hindi":"धन्वंतरि डेंटल क्लिनिक","opening_hours":"Mo-Sa 10:30-12:30;17:30-20:30","personnel_count":1,"mobile":9893491106,"rate_list":"no","ward_no":"072","ward_name":"LOKMANYA NAGAR"},{"latitude":22.6989001,"longitude":75.86780282,"amenity":"dental_clinic","operator":"private","name":"Divya Dental Clinic","name_hindi":"दिव्या डेंटल क्लीनिक","opening_hours":"Mo-Su 10:30-13:30 ; 17:30-19:30","personnel_count":2,"phone_number":7314085528,"rate_list":"no","ward_no":"063","ward_name":"NAVLAKHA"},{"latitude":22.71161297,"longitude":75.87566388,"amenity":"dental_clinic","operator":"private","name":"Doctor Verma Dental Clinic","name_hindi":"डॉक्टर वर्मा डेंटल क्लीनिक","opening_hours":"Mo-Sa 11:00-14:00;16:00-21:00","personnel_count":2,"mobile":8878851001,"rate_list":"no","ward_no":"055","ward_name":"SAUTH TUKOGANJ"},{"latitude":22.73902569,"longitude":75.88076119,"amenity":"dental_clinic","operator":"private","name":"Doctor Wancha Dental Clinic","name_hindi":"\nडॉक्टर वंचा डेंटल क्लीनिक","opening_hours":"Mo-Fr 10:00-15:00;18:00-21:00","personnel_count":2,"mobile":"098260 21997","rate_list":"no","ward_no":"026","ward_name":"JEEN MATA"},{"latitude":22.72223667,"longitude":75.83720667,"amenity":"dental_clinic","operator":"private","name":"Dr Ankita Mishra","name_hindi":"ङा अंकिता मिश्रा","opening_hours":"Mo-Sa10:00-13:00","personnel_count":1,"rate_list":"no","ward_no":"007","ward_name":"JANTA COLONY"},{"latitude":22.72302333,"longitude":75.84613333,"amenity":"dental_clinic","operator":"private","name":"Dr Antush Mittal","name_hindi":"ङा अंतुश मित्तल","opening_hours":"Mo-Sa17:00-21:30","personnel_count":1,"mobile":9691140020,"rate_list":"no","ward_no":"008","ward_name":"JUNA RISALA"},{"latitude":22.68453837,"longitude":75.83293048,"amenity":"dental_clinic","operator":"private","name":"Dr Aparna Harsh Dokay","name_hindi":" डॉ अपर्णा हर्ष डोके","personnel_count":1,"mobile":9893491106,"rate_list":"no","ward_no":"081","ward_name":"ANNAPURNA"},{"latitude":22.73918226,"longitude":75.88057642,"amenity":"dental_clinic","operator":"private","name":"Dr Arpit Chopra Dental Clinic","name_hindi":"डॉ अर्पित चोपड़ा डेंटल क्लिनिक","opening_hours":"Mo-Sa 10:30-14:00;17:00-21:00","personnel_count":3,"mobile":9425329457,"rate_list":"no","ward_no":"026","ward_name":"JEEN MATA"},{"latitude":22.71708455,"longitude":75.85564195,"amenity":"dental_clinic","operator":"private","name":"Dr Ashok L Batheja","name_hindi":"डॉ अशोक एल बाथेजा","opening_hours":"12:30-14:30;18:30-21:00","personnel_count":2,"phone_number":731253347,"rate_list":"no","ward_no":"059","ward_name":"HARSIDDHI"},{"latitude":22.71537833,"longitude":75.84953857,"amenity":"dental_clinic","operator":"private","name":"Dr Ashwin Kumar","name_hindi":"डॉ अश्विन कुमार","opening_hours":"10:00-22:00","personnel_count":2,"mobile":9425053406,"rate_list":"no","ward_no":"068","ward_name":"BAMBAI BAZAR"},{"latitude":22.73175667,"longitude":75.87523167,"amenity":"dental_clinic","operator":"private","name":"Dr Asmita Hawaldar","name_hindi":"ङा अस्मिता हवलदार","opening_hours":"Mo-Sa10:30-14:00; 17:30-20:30","personnel_count":1,"phone_number":7314030755,"mobile":9893975958,"rate_list":"no","ward_no":"047","ward_name":"SARDAR VALLABHBHAI"},{"latitude":22.69000283,"longitude":75.86366989,"amenity":"dental_clinic","operator":"private","name":"Dr Bhatia Dental Clinic","name_hindi":"डॉ. भाटिया डेंटल क्लिनिक","opening_hours":"Mo-Sa 10:30-13:30;17:00-21:00","personnel_count":2,"mobile":9826214298,"rate_list":"no","ward_no":"074","ward_name":"VISHNAPURI"},{"latitude":22.73971514,"longitude":75.84816222,"amenity":"dental_clinic","operator":"private","name":"Dr Chanchal Veer","name_hindi":"डॉ। चंचल वीर","personnel_count":2,"mobile":8077843424,"rate_list":"no","ward_no":"009","ward_name":"VRINDAVAN"},{"latitude":22.6874853,"longitude":75.83674254,"amenity":"dental_clinic","operator":"private","name":"Dr Deepa Saxena","name_hindi":"डॉ दीपा सक्सेना","opening_hours":"Mo-Sa 18:00-21:30","personnel_count":1,"mobile":9826620030,"rate_list":"no","ward_no":"081","ward_name":"ANNAPURNA"},{"latitude":22.69616412,"longitude":75.83227838,"amenity":"dental_clinic","operator":"private","name":"Dr Hora Dental Clinic","name_hindi":"डॉ। होरा डेंटल क्लिनिक","opening_hours":"Mo-fr 10:00-14:00;18:00-21:00","personnel_count":2,"mobile":9926029294,"rate_list":"no","ward_no":"083","ward_name":"GUSHMATA NAGAR"},{"latitude":22.68704062,"longitude":75.89211626,"amenity":"dental_clinic","operator":"private","name":"Dr Jindal","name_hindi":"डॉ। जिंदल","opening_hours":"09:00-13:00;17:00-21:00","personnel_count":2,"mobile":9826515777,"rate_list":"no","ward_no":"064","ward_name":"CHITAVAD"},{"latitude":22.68400017,"longitude":75.82908821,"amenity":"dental_clinic","operator":"private","name":"Dr Jindal Dental Care","name_hindi":"  डॉ जिंदल डेंटल केयर","opening_hours":"mo-sa 09:00-14:00; 16:00-21:00","personnel_count":2,"mobile":9826515777,"rate_list":"no","ward_no":"081","ward_name":"ANNAPURNA"},{"latitude":22.73340833,"longitude":75.87599167,"amenity":"dental_clinic","operator":"private","name":"Dr Jyotsna Wadia","name_hindi":"ङा ज्योत्सना वाङिया","opening_hours":"Mo-Sa10:30-13:00 ; 17:30-21:30","personnel_count":2,"mobile":7566804313,"rate_list":"no","ward_no":"047","ward_name":"SARDAR VALLABHBHAI"},{"latitude":22.72814442,"longitude":75.83208131,"amenity":"dental_clinic","operator":"private","name":"Dr Kanchan Litoria","name_hindi":"डॉ कंचन लिटोरिया","opening_hours":"mo-sa 11:00-13:00; 08:00-21:00","personnel_count":2,"rate_list":"no","ward_no":"004","ward_name":"SUKHDEV NAGAR"},{"latitude":22.66952732,"longitude":75.82812477,"amenity":"dental_clinic","operator":"private","name":"Dr Mahesh Melkundi","name_hindi":"डॉ महेश मेलकुंडी","opening_hours":"Mo-Fr 17:00-21:00","personnel_count":1,"mobile":9755603793,"rate_list":"no","ward_no":"080","ward_name":"DR. RAJENDRA PRASAD"},{"latitude":22.69647505,"longitude":75.8390053,"amenity":"dental_clinic","operator":"private","name":"Dr Megha Jain","name_hindi":"डॉ। मेघा जैन","opening_hours":"Mo-Sa 10:30-14:30;17:30-21:00","personnel_count":1,"mobile":9977777640,"rate_list":"no","ward_no":"071","ward_name":"DRAVID NAGAR"},{"latitude":22.71479231,"longitude":75.90030602,"amenity":"dental_clinic","operator":"private","name":"Dr P Mittal","name_hindi":"डॉ पी मित्तल","opening_hours":"Mo-Sa 9:30-11:00;19:30-20:30","personnel_count":1,"mobile":9926640030,"rate_list":"no","ward_no":"049","ward_name":"TILAKNAGAR"},{"latitude":22.71823735,"longitude":75.8998812,"amenity":"dental_clinic","operator":"private","name":"Dr Pramod Jain","name_hindi":"डॉ प्रमोद जैन","opening_hours":"Mo-Sa 10:00-13:00;17:00-21:00","personnel_count":1,"phone_number":7314035251,"mobile":9926620626,"rate_list":"no","ward_no":"049","ward_name":"TILAKNAGAR"},{"latitude":22.71497949,"longitude":75.89409622,"amenity":"dental_clinic","operator":"private","name":"Dr Rakhi Bharat","name_hindi":"डॉ राखी भरत","opening_hours":"Mo-Sa 19:30-21:00","personnel_count":1,"rate_list":"no","ward_no":"048","ward_name":"GITA BHAVAN"},{"latitude":22.72384229,"longitude":75.87428687,"amenity":"dental_clinic","operator":"private","name":"Dr Rakhi Porwal","name_hindi":"डॉक्टर राखी पोरवाल","opening_hours":"mo-sa 11:00-15:00","personnel_count":2,"mobile":7748818883,"rate_list":"no","ward_no":"047","ward_name":"SARDAR VALLABHBHAI"},{"latitude":22.75729385,"longitude":75.90871568,"amenity":"dental_clinic","operator":"private","name":"Dr Rashmi","name_hindi":" डॉ रश्मि","opening_hours":"Mo-Sa 11:00-14:00; 18:00-21:30","personnel_count":2,"mobile":9754007007,"rate_list":"no","ward_no":"036","ward_name":"NIPANIYA"},{"latitude":22.724541,"longitude":75.82560863,"amenity":"dental_clinic","operator":"private","name":"Dr S K Khatri","name_hindi":" डॉक्टर एस के खत्री","opening_hours":"mo-sa 09:30-12:30 ; 17:00-21:00","personnel_count":2,"mobile":9926052982,"rate_list":"no","ward_no":"004","ward_name":"SUKHDEV NAGAR"},{"latitude":22.71023109,"longitude":75.87806367,"amenity":"dental_clinic","operator":"private","name":"Dr Sadana Dental Clinic","name_hindi":"डॉ। साधना डेंटल क्लिनिक","opening_hours":"Mo-Sa 10:30-14:30;17:30-21:30; Sa 11:00-14:00","personnel_count":2,"mobile":9926514656,"rate_list":"no","ward_no":"055","ward_name":"SAUTH TUKOGANJ"},{"latitude":22.69625961,"longitude":75.83890567,"amenity":"dental_clinic","operator":"private","name":"Dr Seema Kulkarni Clinic","name_hindi":"डॉ। सीमा कुलकर्णी क्लिनिक","opening_hours":"Mo-Fr 12:00-13:30;19:30-21:30","personnel_count":1,"mobile":9425055789,"rate_list":"no","ward_no":"071","ward_name":"DRAVID NAGAR"},{"latitude":22.69389817,"longitude":75.82868083,"amenity":"dental_clinic","operator":"private","name":"Dr Sk Khatri Clinic","name_hindi":"डॉ। एसके खत्री क्लिनिक","opening_hours":"Mo-Sa 9:00-13:00;17:00-21:00","personnel_count":2,"mobile":9981155373,"rate_list":"no","ward_no":"083","ward_name":"GUSHMATA NAGAR"},{"latitude":22.72384538,"longitude":75.87428614,"amenity":"dental_clinic","operator":"private","name":"Dr Sohini Jain","name_hindi":"#N/A","opening_hours":"Mo-sa 11:00-13:00; 17:00-21:00","personnel_count":2,"phone_number":9425023610,"mobile":9425023610,"rate_list":"no","ward_no":"047","ward_name":"SARDAR VALLABHBHAI"},{"latitude":22.68097751,"longitude":75.83553015,"amenity":"dental_clinic","operator":"private","name":"Dr Subash Sonkesariya","name_hindi":"डॉ सुभाष सोंकेसरिया","opening_hours":"Mo-Sa 12:00-14:00; 17:00-21:00","personnel_count":1,"mobile":9425347418,"rate_list":"no","ward_no":"081","ward_name":"ANNAPURNA"},{"latitude":22.68098843,"longitude":75.83548297,"amenity":"dental_clinic","operator":"private","name":"Dr Subhash Sonkesariya","name_hindi":"डॉ सुभाष सोंकेसरिया","opening_hours":"Mo-Sa 12:00-14:00 ; 17:00-21:00","personnel_count":1,"mobile":9425347418,"rate_list":"no","ward_no":"081","ward_name":"ANNAPURNA"},{"latitude":22.72660226,"longitude":75.87951458,"amenity":"dental_clinic","operator":"private","name":"Dr Sumit Jain","name_hindi":"डॉ। सुमित जैन","opening_hours":"Mo-Sa 11:00-13:30;17:00-20:30","personnel_count":2,"mobile":9826054001,"rate_list":"no","ward_no":"047","ward_name":"SARDAR VALLABHBHAI"},{"latitude":22.72627212,"longitude":75.8815906,"amenity":"dental_clinic","operator":"private","name":"Dr Tripathi Dental Clinic","name_hindi":"डॉ त्रिपाठी डेंटल क्लिनिक","personnel_count":3,"mobile":9893429920,"rate_list":"no","ward_no":"047","ward_name":"SARDAR VALLABHBHAI"},{"latitude":22.71934648,"longitude":75.89579597,"amenity":"dental_clinic","operator":"private","name":"Dr Tushar Dighe","name_hindi":"डॉ तुषार दिघे","opening_hours":"Mo-Su 9:30-13:00","personnel_count":1,"mobile":8602703568,"rate_list":"no","ward_no":"049","ward_name":"TILAKNAGAR"},{"latitude":22.72442167,"longitude":75.82718333,"amenity":"dental_clinic","operator":"private","name":"Dr Vinod Raghuvanshi","name_hindi":"ङा विनोद रघुवंशी","opening_hours":"Mo-Sa10:00-14:00;17:00-21:00","personnel_count":0,"mobile":9302373021,"rate_list":"no","ward_no":"004","ward_name":"SUKHDEV NAGAR"},{"latitude":22.73909833,"longitude":75.88069333,"amenity":"dental_clinic","operator":"private","name":"Dr Wachha Dental Clinic","name_hindi":"ङा वाछा ङेन्ट्ल क्लिनीक\n","opening_hours":"Mo-Sa 10:00-15:00; 18:00-21:00","personnel_count":2,"mobile":9977783283,"rate_list":"no","ward_no":"026","ward_name":"JEEN MATA"},{"latitude":22.71127703,"longitude":75.88040569,"amenity":"dental_clinic","operator":"private","name":"Dr. Brijesh Mangal","name_hindi":"डॉ बृजेश मंगल","opening_hours":"Mo-Sa 10:00-20:00","personnel_count":3,"mobile":9826245827,"rate_list":"no","ward_no":"055","ward_name":"SAUTH TUKOGANJ"},{"latitude":22.73066146,"longitude":75.89887376,"amenity":"dental_clinic","operator":"private","name":"Dr. Chauhan'S Dental Clinic","name_hindi":"डॉ चौहान डेंटल क्लिनिक","opening_hours":"Mo-Sa 10:00-13:00;16:30:-20:30","personnel_count":3,"phone_number":7314007070,"rate_list":"no","ward_no":"043","ward_name":"SHRINAGAR"},{"latitude":22.69811159,"longitude":75.86601642,"amenity":"dental_clinic","operator":"private","name":"Dr. Desai","name_hindi":"डॉ देसाई","opening_hours":"Mo-Sa 10:00-14:00 ; 17:00-21:00","personnel_count":1,"mobile":9713907140,"rate_list":"no","ward_no":"065","ward_name":"SANT KANWARRAM"},{"latitude":22.69001026,"longitude":75.86428211,"amenity":"dental_clinic","operator":"private","name":"Dr. G.S. Chabbra","name_hindi":"डॉ. जी. एस. छाबड़ा","opening_hours":"Mo-Sa 10:00-14:00;17:00-21:00","personnel_count":2,"mobile":7770855550,"rate_list":"no","ward_no":"074","ward_name":"VISHNAPURI"},{"latitude":22.72113217,"longitude":75.85432125,"amenity":"dental_clinic","operator":"private","name":"Dr. Gola'sDental Clinic","name_hindi":"#N/A","opening_hours":"Sa-Su 10:00-13:00;17:00-21:00","personnel_count":2,"mobile":9074972500,"rate_list":"no","ward_no":"058","ward_name":"IMLI BAZAR"},{"latitude":22.75377302,"longitude":75.90795247,"amenity":"dental_clinic","operator":"private","name":"Dr. Prena Raje Batham","name_hindi":"#N/A","opening_hours":"05:30 PM - 08:30 PM","personnel_count":3,"phone_number":918827203786,"rate_list":"no","ward_no":"037","ward_name":"SAI KRUPA"},{"latitude":22.75712103,"longitude":75.90883899,"amenity":"dental_clinic","operator":"private","name":"Dr. Rashmi Dental Clinic","name_hindi":"#N/A","opening_hours":"Mo-Sa 11:00-14:00 ; 18:00-20:30","personnel_count":1,"mobile":9754007077,"rate_list":"no","ward_no":"036","ward_name":"NIPANIYA"},{"latitude":22.69844413,"longitude":75.83437493,"amenity":"dental_clinic","operator":"private","name":"Dr. Somani'S Dental Clinic","name_hindi":"डॉ सोमानी डेंटल क्लिनिक","opening_hours":"Mo-Sa 10:00-14:00","personnel_count":1,"mobile":9893179799,"rate_list":"no","ward_no":"071","ward_name":"DRAVID NAGAR"},{"latitude":22.70796675,"longitude":75.87616037,"amenity":"dental_clinic","operator":"private","name":"Dr. Sourabh Saxena","name_hindi":" डर सौरभ सक्सेना","opening_hours":"Mo-Sa 10:00-14::30;17:00-20:30;Su 11:00-14:00","personnel_count":2,"mobile":8989461141,"rate_list":"no","ward_no":"063","ward_name":"NAVLAKHA"},{"latitude":22.71839099,"longitude":75.88351829,"amenity":"dental_clinic","operator":"private","name":"Dr. Sumit Hardiya","name_hindi":"डॉ सुमित हार्डिया","opening_hours":"Mo-Sa 10:00-1400; Mo-Sa 17:00-20:00","personnel_count":4,"phone_number":9827215402,"rate_list":"no","ward_no":"055","ward_name":"SAUTH TUKOGANJ"},{"latitude":22.7538777,"longitude":75.90827285,"amenity":"dental_clinic","operator":"private","name":"Dr.Arti Rai Dental Clinic","name_hindi":"#N/A","opening_hours":"Su-Sa 10:00-13:00; 17:00-20:00","personnel_count":1,"mobile":9755813311,"rate_list":"no","ward_no":"037","ward_name":"SAI KRUPA"},{"latitude":22.71886732,"longitude":75.85296744,"amenity":"dental_clinic","operator":"private","name":"Dr.Arvin Krishnan Gola","name_hindi":"डॉ.अर्विन कृष्णन गोला","opening_hours":"Mo-Sa 9:00-16:00","personnel_count":1,"mobile":9754795998,"rate_list":"no","ward_no":"058","ward_name":"IMLI BAZAR"},{"latitude":22.7162509,"longitude":75.89644786,"amenity":"dental_clinic","operator":"private","name":"Dr.Dipali Rathore","name_hindi":"#N/A","opening_hours":"Mo-fr 11:00-13:00","personnel_count":3,"mobile":9926699647,"rate_list":"no","ward_no":"049","ward_name":"TILAKNAGAR"},{"latitude":22.66490873,"longitude":75.91506094,"amenity":"dental_clinic","operator":"private","name":"Dr.Nitin Masih","name_hindi":"डॉ.नितिन मसीह","opening_hours":"Mo-Sa 10:00-13:00;17:00-20:00","personnel_count":1,"mobile":7772926024,"rate_list":"no","ward_no":"075","ward_name":"PALDA"},{"latitude":22.71519534,"longitude":75.8490405,"amenity":"dental_clinic","operator":"private","name":"Dr.Rakesh Kumar","name_hindi":"डॉ.राकेश कुमार","opening_hours":43670,"personnel_count":2,"mobile":9826288651,"rate_list":"no","ward_no":"069","ward_name":"JAWAHAR MARG"},{"latitude":22.68845718,"longitude":75.83422909,"amenity":"dental_clinic","operator":"private","name":"Ekdant Dental Clinic","name_hindi":"एकदंत डेंटल क्लीनिक","opening_hours":"Mo-Sa 17:00-21:00","personnel_count":1,"mobile":9894335858,"rate_list":"no","ward_no":"082","ward_name":"SUDAMA NAGAR"},{"latitude":22.74341743,"longitude":75.87575493,"amenity":"dental_clinic","operator":"private","name":"Elegance Dental Clinic","name_hindi":"एलेगेंस डेंटल क्लिनिक","opening_hours":"Mo-Sa 11:00-13:30;17:30-20:30","personnel_count":2,"mobile":9009822818,"rate_list":"no","ward_no":"025","ward_name":"NANDA NAGAR"},{"latitude":22.74250319,"longitude":75.89458268,"amenity":"dental_clinic","operator":"private","name":"Esthetics Dental Clinic","name_hindi":"एस्थेटिक्स डेंटल क्लीनिक","opening_hours":"Sa-Su 11:00-14:00;17:00-21:00","personnel_count":2,"mobile":9669042047,"rate_list":"no","ward_no":"044","ward_name":"H.I.G."},{"latitude":22.72563235,"longitude":75.89124257,"amenity":"dental_clinic","operator":"private","name":"Family Dental Care Clinic","name_hindi":"फैमिली डेंटल केअर क्लिनिक","opening_hours":"Mo-Sa 10:00-13:00;17:30-21:00","personnel_count":2,"mobile":9589091091,"rate_list":"no","ward_no":"043","ward_name":"SHRINAGAR"},{"latitude":22.72833532,"longitude":75.89487125,"amenity":"dental_clinic","operator":"private","name":"Gambhir Dental Clinic","name_hindi":"गंभीर डेंटल क्लिनिक","opening_hours":"Mo-Fr 10:00-12:00;19:00-21:00","personnel_count":2,"mobile":9827067994,"rate_list":"no","ward_no":"043","ward_name":"SHRINAGAR"},{"latitude":22.69459468,"longitude":75.83491715,"amenity":"dental_clinic","operator":"private","name":"Ganesha Dental Clinic","name_hindi":"गणेश डेंटल क्लिनिक","opening_hours":"Mo-Fr 13:00-17:00","personnel_count":1,"mobile":9826666945,"rate_list":"no","ward_no":"083","ward_name":"GUSHMATA NAGAR"},{"latitude":22.67237143,"longitude":75.82982409,"amenity":"dental_clinic","operator":"private","name":"Global Dental Clinic","name_hindi":"ग्लोबल डेंटल क्लिनिक","opening_hours":"Mo-Sa 17:00-20:30","personnel_count":2,"mobile":8989547963,"rate_list":"no","ward_no":"080","ward_name":"DR. RAJENDRA PRASAD"},{"latitude":22.66205401,"longitude":75.88982855,"amenity":"dental_clinic","operator":"private","name":"Gopal Multi Speciality Clinic","name_hindi":"गोपाल मल्टी स्पेशलिटी क्लिनिक","opening_hours":"Mo-Sa 10:00-12:00;14:00-20:00","personnel_count":4,"mobile":9770244194,"rate_list":"no","ward_no":"077","ward_name":"BILAWALI"},{"latitude":22.75865842,"longitude":75.84807173,"amenity":"dental_clinic","operator":"private","name":"Gurukripa Dental Clinic","name_hindi":"गुरुकृपा डेंटल क्लिनिक","opening_hours":"Mo-Sa 10:00-14:00;17:00-19:00","personnel_count":1,"mobile":9109610355,"rate_list":"no","ward_no":"018","ward_name":"SANT KABIR"},{"latitude":22.69798215,"longitude":75.85619829,"amenity":"dental_clinic","operator":"private","name":"Hakimi Dental Clinic","name_hindi":"हकीमी डेंटल क्लिनिक","opening_hours":"Mo-Sa 09:00-13:00;16:30-20:30","personnel_count":2,"mobile":9926929898,"rate_list":"no","ward_no":"065","ward_name":"SANT KANWARRAM"},{"latitude":22.70736986,"longitude":75.87809619,"amenity":"dental_clinic","operator":"private","name":"Happy 32 Dental Clinic","name_hindi":"हैप्पी 32 डेंटल क्लिनिक","opening_hours":"Mo-Fr 10:30:14:00;5:30-20:30","personnel_count":1,"mobile":9424503173,"rate_list":"no","ward_no":"063","ward_name":"NAVLAKHA"},{"latitude":22.73071558,"longitude":75.8981515,"amenity":"dental_clinic","operator":"private","name":"Hari Geet Dental Clinic","name_hindi":"हरि गीत डेंटल क्लिनिक","opening_hours":"Ma-Sa 10:00-14:00; Mo-Sa 16:00-20:00","personnel_count":4,"mobile":9770907205,"rate_list":"no","ward_no":"043","ward_name":"SHRINAGAR"},{"latitude":22.69538381,"longitude":75.85320373,"amenity":"dental_clinic","operator":"private","name":"Hashmi Dental Clinic","name_hindi":"हाशमी डेंटल क्लिनिक","opening_hours":"Mo-Sa 10:00-13:00;17:00-21:00","personnel_count":2,"mobile":8109047517,"rate_list":"no","ward_no":"073","ward_name":"LAXMANSINGH CHAUHAN"},{"latitude":22.72276722,"longitude":75.87415511,"amenity":"dental_clinic","operator":"private","name":"Iconic Dental Care","name_hindi":"आईकॉनिक डेंटल केयर","personnel_count":2,"phone_number":7314096703,"mobile":9425920733,"rate_list":"no","ward_no":"047","ward_name":"SARDAR VALLABHBHAI"},{"latitude":22.72853784,"longitude":75.89570569,"amenity":"dental_clinic","operator":"private","name":"Ideal Dental Care","name_hindi":"आइडियल डेंटल केअर","opening_hours":"Mo-Sa 10:00-20:00","personnel_count":13,"phone_number":7314274561,"rate_list":"no","ward_no":"042","ward_name":"SWAMI VIVEKANAND"},{"latitude":22.73039344,"longitude":75.89704705,"amenity":"dental_clinic","operator":"private","name":"India Dental & Surgical Solution","name_hindi":"इंडिया डेंटल & सर्जिकल सलूशन","opening_hours":"Mo-Fr 10:00-19:00","personnel_count":3,"mobile":8770049788,"rate_list":"no","ward_no":"043","ward_name":"SHRINAGAR"},{"latitude":22.70955915,"longitude":75.85070156,"amenity":"dental_clinic","operator":"private","name":"Jai Jhalelal Sai Dharmarth Clinic","name_hindi":"जय झलेलाल साई धर्मार्थ क्लिनिक","opening_hours":"Mo-Sa 09:00-12:00","personnel_count":3,"phone_number":7312341790,"rate_list":"no","ward_no":"067","ward_name":"MAHARAJA HOLKAR"},{"latitude":22.72084591,"longitude":75.90151689,"amenity":"dental_clinic","operator":"private","name":"Jain Dental Clinic","name_hindi":"जैन दंत चिकित्सा क्लिनिक","opening_hours":"10:30-21:00","personnel_count":3,"mobile":9424456154,"rate_list":"no","ward_no":"042","ward_name":"SWAMI VIVEKANAND"},{"latitude":22.7018316,"longitude":75.83749565,"amenity":"dental_clinic","operator":"private","name":"Kalaa Dental Clinic","name_hindi":"काला दंत चिकित्सालय","opening_hours":"Mo-Sa 10:00-14:00;17:30-21:30","personnel_count":2,"mobile":9669738586,"rate_list":"no","ward_no":"071","ward_name":"DRAVID NAGAR"},{"latitude":22.6995404,"longitude":75.85858987,"amenity":"dental_clinic","operator":"private","name":"Kapadia Dental Clinic","name_hindi":"कपाड़िया डेंटल क्लिनिक","opening_hours":"Mo-Sa 10:00-13:00;17:00-21:00","personnel_count":2,"mobile":8827577552,"rate_list":"no","ward_no":"065","ward_name":"SANT KANWARRAM"},{"latitude":22.69263593,"longitude":75.90415224,"amenity":"dental_clinic","operator":"private","name":"Keshav Multispeciality Dental Clinic","name_hindi":"केशव मल्टीस्पेशलिटी डेंटल क्लिनिक","opening_hours":"Mo-Sa 11:00-14:00;16:00-21:00","personnel_count":2,"mobile":8770727277,"rate_list":"no","ward_no":"054","ward_name":"RESIDENCY"},{"latitude":22.66814328,"longitude":75.88970804,"amenity":"dental_clinic","operator":"private","name":"Kiran Clinic","name_hindi":"किरण क्लीनिक","opening_hours":"Mo-Sa 09:30-19:00","personnel_count":5,"mobile":7772042743,"rate_list":"no","ward_no":"077","ward_name":"BILAWALI"},{"latitude":22.67732552,"longitude":75.83837074,"amenity":"dental_clinic","operator":"private","name":"Krishna Dental Clinic","name_hindi":"कृष्ण डेंटल क्लिनिक","opening_hours":"Mo-Fr 17:30-21:30","personnel_count":1,"mobile":7869381622,"rate_list":"no","ward_no":"078","ward_name":"CHOITHRAM"},{"latitude":22.71891022,"longitude":75.89718291,"amenity":"dental_clinic","operator":"private","name":"Kulkarni Dental Clinic","name_hindi":"कुलकर्णी डेंटल क्लिनिक","opening_hours":"Mo-Sa 9:00-11:00;17:00-21:00\n Su 12:00-14:00","personnel_count":2,"mobile":9993291547,"rate_list":"no","ward_no":"049","ward_name":"TILAKNAGAR"},{"latitude":22.72673649,"longitude":75.90053425,"amenity":"dental_clinic","operator":"private","name":"Kusum Dental Clinic","name_hindi":"कुसुम डेंटल कलनिक","opening_hours":"Mo-Fr 10:00-13:00;17:00-20:00","personnel_count":2,"mobile":9893383468,"rate_list":"no","ward_no":"042","ward_name":"SWAMI VIVEKANAND"},{"latitude":22.66770293,"longitude":75.88713654,"amenity":"dental_clinic","operator":"private","name":"Leelasagar Dental Care Centre","name_hindi":"Leela","opening_hours":"Mo-Sa 09:00-17:00","personnel_count":7,"mobile":9479748682,"rate_list":"no","ward_no":"077","ward_name":"BILAWALI"},{"latitude":22.69469952,"longitude":75.83857584,"amenity":"dental_clinic","operator":"private","name":"Little Smiles","name_hindi":"लिटिल स्माइल्स","opening_hours":"Mo-Sa 17:30-20:30","personnel_count":3,"phone_number":7312797478,"rate_list":"no","ward_no":"071","ward_name":"DRAVID NAGAR"},{"latitude":22.79845657,"longitude":75.91208254,"amenity":"dental_clinic","operator":"private","name":"Maa Durga Clinic","name_hindi":"माँ दुर्गा क्लिनिक","opening_hours":"Tu-Sa 9:00-13:00;17:00-21:00","personnel_count":1,"mobile":"073897 97718","rate_list":"no","ward_no":"035","ward_name":"LASUDIYA MORI"},{"latitude":22.7389231,"longitude":75.88247361,"amenity":"dental_clinic","operator":"private","name":"Maa Narmada Dental Clinic","name_hindi":"माँ नर्मदा डेंटल क्लिनिक","opening_hours":"11:00-14:00;17:30-21:30","personnel_count":1,"mobile":7869023119,"rate_list":"no","ward_no":"044","ward_name":"H.I.G."},{"latitude":22.68392448,"longitude":75.82916,"amenity":"dental_clinic","operator":"private","name":"Maharshi Raman Dental Clinic","name_hindi":"\nमहर्षि रमन दंत चिकित्सालय","opening_hours":"10:00-13:00;17:00-21:00","personnel_count":10,"mobile":9893386811,"rate_list":"no","ward_no":"081","ward_name":"ANNAPURNA"},{"latitude":22.72625861,"longitude":75.90353688,"amenity":"dental_clinic","operator":"private","name":"Multispeciality Dental Clinic","name_hindi":"मल्टीस्पेशलिटी डेंटल कलनिक","opening_hours":"Mo-Sa 17:00-21:00","personnel_count":2,"mobile":8554974275,"rate_list":"no","ward_no":"042","ward_name":"SWAMI VIVEKANAND"},{"latitude":22.75581822,"longitude":75.89209776,"amenity":"dental_clinic","operator":"private","name":"Muskaan Dental & Orthodontic Clinic","name_hindi":"#N/A","opening_hours":"Mo-Sa 10:30-13:00;17:00;-20:30","personnel_count":5,"mobile":9827231679,"rate_list":"no","ward_no":"029","ward_name":"DR. SHYAM PRASAD MUKHARJI"},{"latitude":22.69925412,"longitude":75.85210718,"amenity":"dental_clinic","operator":"private","name":"Muskan Dental & Orthodontic Clinic","name_hindi":"मुस्कान डेंटल एंड ऑर्थोडोंटिक क्लिनिक","opening_hours":"Mo-Sa 11:30-14:30 ; 18:00- 21:00","personnel_count":1,"mobile":9827231699,"rate_list":"no","ward_no":"066","ward_name":"SHAHID HEMU COLONY"},{"latitude":22.69799268,"longitude":75.85552623,"amenity":"dental_clinic","operator":"private","name":"Najmi Dental Clinic","name_hindi":"नाजमी डेंटल क्लिनिक","opening_hours":"Mo-Sa 09:00-12:00;18:00-21:00","personnel_count":2,"mobile":9893440922,"rate_list":"no","ward_no":"065","ward_name":"SANT KANWARRAM"},{"latitude":22.69514138,"longitude":75.83628413,"amenity":"dental_clinic","operator":"private","name":"Narayanam Dental Clinic","name_hindi":"नारायणं डेंटल क्लिनिक","opening_hours":"Mo-Fr 17:30-21:30","personnel_count":4,"mobile":9826329000,"rate_list":"no","ward_no":"071","ward_name":"DRAVID NAGAR"},{"latitude":22.69882311,"longitude":75.83081594,"amenity":"dental_clinic","operator":"private","name":"Nidan Dental Clinic","name_hindi":"निदां दंत चिकित्सालय","opening_hours":"Mo-Sa 11:00-19:00","personnel_count":1,"mobile":9826331130,"rate_list":"no","ward_no":"083","ward_name":"GUSHMATA NAGAR"},{"latitude":22.69732677,"longitude":75.83267566,"amenity":"dental_clinic","operator":"private","name":"Nilay Dental Clinic","name_hindi":"निलय दंत चिकित्सा क्लिनिक","opening_hours":"Mo-Sa 17:00-21:00","personnel_count":2,"mobile":9424583633,"rate_list":"no","ward_no":"083","ward_name":"GUSHMATA NAGAR"},{"latitude":22.73510806,"longitude":75.89785273,"amenity":"dental_clinic","operator":"private","name":"Parshva Dental","name_hindi":"पार्श्व डेंटल","opening_hours":"Mo-Sa 10:00-12:00","personnel_count":1,"mobile":9406883679,"rate_list":"no","ward_no":"030","ward_name":"SANT RAVIDAS"},{"latitude":22.73193867,"longitude":75.88783346,"amenity":"dental_clinic","operator":"private","name":"Patni Family Dental Clinic","name_hindi":"पाटनी फैमिली डेंटल क्लिनिक","opening_hours":"Mo-Fr 19:00-21:00\n Su 10:00-13:00","personnel_count":2,"rate_list":"no","ward_no":"045","ward_name":"DR. BHIMRAO AMBEDAR"},{"latitude":22.75555668,"longitude":75.90742461,"amenity":"dental_clinic","operator":"private","name":"Pc Dental Clinic","name_hindi":"#N/A","opening_hours":"Mo-Sa 09:00-13:30 ; 18:00-21:00","personnel_count":1,"mobile":9644068334,"rate_list":"no","ward_no":"037","ward_name":"SAI KRUPA"},{"latitude":22.72308942,"longitude":75.89289988,"amenity":"dental_clinic","operator":"private","name":"Pearl Dental Clinic","name_hindi":"पर्ल डेंटल क्लीनिक","opening_hours":"Mo-Sa 10:00-14:00; 17:00-21:00","personnel_count":2,"mobile":9926400077,"rate_list":"no","ward_no":"042","ward_name":"SWAMI VIVEKANAND"},{"latitude":22.71553358,"longitude":75.84282183,"amenity":"dental_clinic","operator":"private","name":"Pearl Dental Clinic","name_hindi":"पर्ल डेंटल क्लीनिक","opening_hours":"Mo-Sa 10:00-13:00","personnel_count":3,"mobile":8602655259,"rate_list":"no","ward_no":"069","ward_name":"JAWAHAR MARG"},{"latitude":22.68137716,"longitude":75.82950099,"amenity":"dental_clinic","operator":"private","name":"Pearl Dental Clinic","name_hindi":"पर्ल डेंटल क्लीनिक","opening_hours":"Mo-Sa 10:30-13:30;17:00-20:00","personnel_count":2,"mobile":8602655259,"rate_list":"no","ward_no":"080","ward_name":"DR. RAJENDRA PRASAD"},{"latitude":22.72021007,"longitude":75.84760987,"amenity":"dental_clinic","operator":"private","name":"Perfect 32 Dental Clinic And Implant Centre","name_hindi":"पर्फेक्ट 32 डेंटल क्लिनिक एंड इंप्लांट सेंटर","opening_hours":"mo-sa 11:00-14:30; 18:00-21:00; su 11:00-14:00","personnel_count":2,"mobile":7746053339,"rate_list":"no","ward_no":"008","ward_name":"JUNA RISALA"},{"latitude":22.75688942,"longitude":75.88931095,"amenity":"dental_clinic","operator":"private","name":"Perfect Dental Solutions","name_hindi":"#N/A","opening_hours":"Mo-Sa 10:00-14:00;17:30-20:30","personnel_count":4,"mobile":7771877730,"rate_list":"no","ward_no":"029","ward_name":"DR. SHYAM PRASAD MUKHARJI"},{"latitude":22.72573613,"longitude":75.89385961,"amenity":"dental_clinic","operator":"private","name":"Perfect Smile","name_hindi":"परफेक्ट स्माइल","opening_hours":"Mo-Sa 10:00-13:00; 17:00-21:00","personnel_count":1,"phone_number":7312566066,"rate_list":"no","ward_no":"043","ward_name":"SHRINAGAR"},{"latitude":22.71482445,"longitude":75.89371674,"amenity":"dental_clinic","operator":"private","name":"Platinum Dental Care","name_hindi":"प्लैटिनम डेंटल केअर","opening_hours":"Mo-Sa 10:00-14:00;17:00-21:00","personnel_count":1,"mobile":9977602323,"rate_list":"no","ward_no":"048","ward_name":"GITA BHAVAN"},{"latitude":22.72735733,"longitude":75.90023542,"amenity":"dental_clinic","operator":"private","name":"Prime Dental Clinic","name_hindi":"प्राइम डेंटल क्लिनिक","opening_hours":"Mo-Sa 18:00-20:00","personnel_count":2,"phone_number":7312703609,"rate_list":"no","ward_no":"042","ward_name":"SWAMI VIVEKANAND"},{"latitude":22.79570734,"longitude":75.84727335,"amenity":"dental_clinic","operator":"private","name":"R K Dental Clinic","name_hindi":"आर.के.डेंटल क्लिनीक","opening_hours":"Mo-Sa 11:00-14:00;17:00-20:00","personnel_count":2,"mobile":7748888800,"rate_list":"no","ward_no":"018","ward_name":"SANT KABIR"},{"latitude":22.76302055,"longitude":75.92284786,"amenity":"dental_clinic","operator":"private","name":"Raghuwanshi Dental Clinic","name_hindi":"रघुवंशी डेंटल क्लिनिक","opening_hours":"Mo-Sa 14:30-20:00","personnel_count":1,"mobile":9752812221,"rate_list":"no","ward_no":"036","ward_name":"NIPANIYA"},{"latitude":22.7276499,"longitude":75.88755748,"amenity":"dental_clinic","operator":"private","name":"Rajeshwari Multispeciality Dental Clinic","name_hindi":"राजेश्वरी मल्टीस्पेशलिटी डेंटल क्लीनिक","opening_hours":"Mon-Sat 17:00-20:30","personnel_count":6,"mobile":9229223035,"rate_list":"no","ward_no":"045","ward_name":"DR. BHIMRAO AMBEDAR"},{"latitude":22.72158311,"longitude":75.83709452,"amenity":"dental_clinic","operator":"private","name":"Riddhiman Dental Clinic","name_hindi":" रिद्धिमान डेंटल क्लिनिक","opening_hours":"mo-sa 18:00-21:30","personnel_count":5,"mobile":9009000054,"rate_list":"no","ward_no":"007","ward_name":"JANTA COLONY"},{"latitude":22.69665583,"longitude":75.83244237,"amenity":"dental_clinic","operator":"private","name":"Sabu Dental Clinic","name_hindi":"साबू डेंटल क्लिनिक","opening_hours":"Mo-Sa 11:00-15:00","personnel_count":1,"mobile":9827212566,"rate_list":"no","ward_no":"083","ward_name":"GUSHMATA NAGAR"},{"latitude":22.68728235,"longitude":75.89252539,"amenity":"dental_clinic","operator":"private","name":"Sanjeev Dental Clinic","name_hindi":" संजीव डेंटल क्लिनिक","opening_hours":"mo-sa 10:00-13:00;17:00-21:00","personnel_count":1,"mobile":7746051111,"rate_list":"no","ward_no":"051","ward_name":"BHAGVATI NAGAR"},{"latitude":22.71467057,"longitude":75.89896582,"amenity":"dental_clinic","operator":"private","name":"Sanjeevani Dental Care","name_hindi":"संजीवनी डेंटल केयर","opening_hours":"Mo-Fr 10:00-13:00","personnel_count":2,"phone_number":7312499604,"rate_list":"no","ward_no":"049","ward_name":"TILAKNAGAR"},{"latitude":22.72060451,"longitude":75.89532985,"amenity":"dental_clinic","operator":"private","name":"Sanjeevani Dental Care","name_hindi":"संजीवनी डेंटल केयर","opening_hours":"Mo-Sa 10:00-14:00;17:30-20:30","personnel_count":3,"phone_number":7312499604,"rate_list":"no","ward_no":"042","ward_name":"SWAMI VIVEKANAND"},{"latitude":22.6989324,"longitude":75.86617422,"amenity":"dental_clinic","operator":"private","name":"Saraswati Poly Dental Clinic","name_hindi":"सरस्वती पाली डेंटल क्लिनिक","opening_hours":"Mo-Sa 10:00-14:00;17:00-21:00","personnel_count":2,"mobile":9424888850,"rate_list":"no","ward_no":"063","ward_name":"NAVLAKHA"},{"latitude":22.6979141,"longitude":75.85525897,"amenity":"dental_clinic","operator":"private","name":"Shah Dental Clinic","name_hindi":"शाह डेंटल क्लिनिक","opening_hours":"Mo-Sa 10:00-13:00 ; 17:00-20:30","personnel_count":1,"mobile":7693073559,"rate_list":"no","ward_no":"073","ward_name":"LAXMANSINGH CHAUHAN"},{"latitude":22.71130924,"longitude":75.8802707,"amenity":"dental_clinic","operator":"private","name":"Shail Dental & Surgical","name_hindi":"शैल डेंटल एंड सर्जिकल","opening_hours":"Mo-Sa 10:30-20:30","personnel_count":4,"phone_number":7314020777,"rate_list":"no","ward_no":"055","ward_name":"SAUTH TUKOGANJ"},{"latitude":22.74382443,"longitude":75.87381932,"amenity":"dental_clinic","operator":"private","name":"Sharma Dental Clinic","name_hindi":"शर्मा डेंटल क्लिनिक","opening_hours":"Mo-Sa 10:00-14:00;18:00-21:00","personnel_count":2,"mobile":9926924399,"rate_list":"no","ward_no":"024","ward_name":"SANT BALAJI ATH MAHARAJ"},{"latitude":22.68225104,"longitude":75.84102482,"amenity":"dental_clinic","operator":"private","name":"Shataayu Dental Clinic","name_hindi":"शतायु डेंटल क्लीनिक","opening_hours":"Mo-Sa 10:00-21:00","personnel_count":2,"mobile":9826245876,"rate_list":"no","ward_no":"078","ward_name":"CHOITHRAM"},{"latitude":22.74083165,"longitude":75.83460853,"amenity":"dental_clinic","operator":"private","name":"Shine Dental Care","name_hindi":"#N/A","opening_hours":"mo-sa 10:00-14:00;17:30-20;30","personnel_count":0,"mobile":9993022580,"rate_list":"no","ward_no":"013","ward_name":"SANGAM NAGAR"},{"latitude":22.72699294,"longitude":75.88324845,"amenity":"dental_clinic","operator":"private","name":"Shrayas Multispeciality Dental Clinic","name_hindi":"श्रेया मल्टीस्पेशलिटी डेंटल क्लीनिक","opening_hours":"Mon-Sat 12:00-16:00","personnel_count":3,"phone_number":7314700343,"mobile":9826034340,"rate_list":"no","ward_no":"047","ward_name":"SARDAR VALLABHBHAI"},{"latitude":22.72259572,"longitude":75.8948733,"amenity":"dental_clinic","operator":"private","name":"Shree Dental Clinic","name_hindi":"श्री डेंटल क्लिनिक","opening_hours":"Mo-Sa 11:00-14:00;18:00-21:00 Su 11:00-14;00","personnel_count":1,"mobile":9752591114,"rate_list":"no","ward_no":"042","ward_name":"SWAMI VIVEKANAND"},{"latitude":22.72495099,"longitude":75.86306854,"amenity":"dental_clinic","operator":"private","name":"Shree Dental Clinic","name_hindi":"श्री डेंटल क्लिनिक","opening_hours":"10:30-14:00;17:00-21:00","personnel_count":2,"mobile":8461923112,"rate_list":"no","ward_no":"056","ward_name":"SNEHALATA GANJ"},{"latitude":22.69782,"longitude":75.85957852,"amenity":"dental_clinic","operator":"private","name":"Shree Dental Clinic","name_hindi":"श्री डेंटल क्लिनिक","opening_hours":"Mo-Fr 9: 00-14: 00","personnel_count":2,"mobile":9229457271,"rate_list":"no","ward_no":"073","ward_name":"LAXMANSINGH CHAUHAN"},{"latitude":22.67194721,"longitude":75.83024565,"amenity":"dental_clinic","operator":"private","name":"Shri Datt Sevarth Dental Clinic","name_hindi":"श्री दत्त सेवार्थ डेंटल क्लिनिक","opening_hours":"Mo-Sa 9:00-12:00;18:00-21:30","personnel_count":1,"mobile":9584737029,"rate_list":"no","ward_no":"080","ward_name":"DR. RAJENDRA PRASAD"},{"latitude":22.69236696,"longitude":75.83800413,"amenity":"dental_clinic","operator":"private","name":"Shri Ram Dental Clinics","name_hindi":"श्री राम दंत चिकित्सालय","opening_hours":43670,"personnel_count":2,"mobile":9981665590,"rate_list":"no","ward_no":"071","ward_name":"DRAVID NAGAR"},{"latitude":22.71918331,"longitude":75.851756,"amenity":"dental_clinic","operator":"private","name":"Shri Ram Dental Hall","name_hindi":"श्री राम डेंटल हॉल","opening_hours":"Mo-Sa 10:00-19:00","personnel_count":1,"phone_number":"0731 405 4154","rate_list":"no","ward_no":"058","ward_name":"IMLI BAZAR"},{"latitude":22.69664657,"longitude":75.83934694,"amenity":"dental_clinic","operator":"private","name":"Shri Shri Dental Clinic","name_hindi":"#N/A","opening_hours":"Mo-Sa 10:00-14:00;18:00-22:00","personnel_count":3,"rate_list":"no","ward_no":"072","ward_name":"LOKMANYA NAGAR"},{"latitude":22.68351691,"longitude":75.82981557,"amenity":"dental_clinic","operator":"private","name":"Shri Yeshwant Sharda Advanced Dental Clinic","name_hindi":"श्री यशवंत शारदा एडवांस्ड डेंटल क्लीनिक","opening_hours":"11:00-14:00;17:00-21:00","personnel_count":2,"mobile":8817288912,"rate_list":"no","ward_no":"080","ward_name":"DR. RAJENDRA PRASAD"},{"latitude":22.7543721,"longitude":75.90567014,"amenity":"dental_clinic","operator":"private","name":"Shubham Dental Clinic","name_hindi":"#N/A","opening_hours":"Su-Sa 10:00-13:00; 17:00-21:00","personnel_count":2,"mobile":9826927632,"rate_list":"no","ward_no":"037","ward_name":"SAI KRUPA"},{"latitude":22.72101087,"longitude":75.90083782,"amenity":"dental_clinic","operator":"private","name":"Shufla Dental Clinic","name_hindi":"सूफला दंत चिकित्सा क्लिनिक","opening_hours":"10:00-14:00;17:00-20:00","personnel_count":3,"mobile":9827528541,"rate_list":"no","ward_no":"042","ward_name":"SWAMI VIVEKANAND"},{"latitude":22.76082948,"longitude":75.92990198,"amenity":"dental_clinic","operator":"private","name":"Smile Care Dental Clinic","name_hindi":"स्माइल केअर डेंटल क्लिनिक","personnel_count":2,"mobile":9425353530,"rate_list":"no","ward_no":"036","ward_name":"NIPANIYA"},{"latitude":22.72602426,"longitude":75.8944341,"amenity":"dental_clinic","operator":"private","name":"Smile Curve Dental Clinic","name_hindi":"स्माइल कर्व डेंटल क्लिनिक","opening_hours":"Mo-Fr 10:00-14:00-17:00-19:00","personnel_count":2,"mobile":9826024989,"rate_list":"no","ward_no":"043","ward_name":"SHRINAGAR"},{"latitude":22.70996574,"longitude":75.87722574,"amenity":"dental_clinic","operator":"private","name":"Smile Dental Clinic","name_hindi":"स्माइल डेंटल क्लीनिक","opening_hours":"Mo-Sa 11:00-14:00;17:00-21:00","personnel_count":3,"mobile":9826092665,"rate_list":"no","ward_no":"055","ward_name":"SAUTH TUKOGANJ"},{"latitude":22.7644825,"longitude":75.92028886,"amenity":"dental_clinic","operator":"private","name":"Smile Dental Clinic","name_hindi":"स्माइल डेंटल क्लीनिक","opening_hours":"Mo-Sa 10:30-14:30; Mo-Sa 17:00-20:00","personnel_count":3,"mobile":9424334608,"rate_list":"no","ward_no":"036","ward_name":"NIPANIYA"},{"latitude":22.73986228,"longitude":75.84769855,"amenity":"dental_clinic","operator":"private","name":"Smile Dental Clinic","name_hindi":"स्माइल डेंटल क्लीनिक","opening_hours":"mo-sa 10:00-14:00; 17:00-21:00; sun 10:00-14:00","personnel_count":3,"mobile":9713347791,"rate_list":"no","ward_no":"009","ward_name":"VRINDAVAN"},{"latitude":22.72713892,"longitude":75.88337217,"amenity":"dental_clinic","operator":"private","name":"Smile Indore Dental Solutions","name_hindi":"स्माइल इंदौर डेंटल सॉल्यूशंस","opening_hours":"Mon-Sat 10:00-20:00","personnel_count":2,"mobile":9827036881,"rate_list":"no","ward_no":"043","ward_name":"SHRINAGAR"},{"latitude":22.76207616,"longitude":75.92186592,"amenity":"dental_clinic","operator":"private","name":"Smile Maker Dental Clinic","name_hindi":"स्माइल मेकर डेंटल क्लिनीक","opening_hours":"Mo-Sa 9:00-21:00","personnel_count":5,"mobile":9644000201,"rate_list":"no","ward_no":"036","ward_name":"NIPANIYA"},{"latitude":22.77014874,"longitude":75.91095612,"amenity":"dental_clinic","operator":"private","name":"Smile Up","name_hindi":"स्माइल अप","opening_hours":"Mo-Sa 10:00-14:00; 17:00-21:00","personnel_count":1,"mobile":9713966128,"rate_list":"no","ward_no":"036","ward_name":"NIPANIYA"},{"latitude":22.69613384,"longitude":75.84638519,"amenity":"dental_clinic","operator":"private","name":"Sparsh Dental Clinic","name_hindi":"#N/A","opening_hours":"Mo-Sa 9:30-13:00;17:00-20:00","personnel_count":1,"mobile":9893011122,"rate_list":"no","ward_no":"072","ward_name":"LOKMANYA NAGAR"},{"latitude":22.72550299,"longitude":75.89488462,"amenity":"dental_clinic","operator":"private","name":"Speciality Dental Care","name_hindi":"स्पेशलिटी डेंटल केयर","opening_hours":"Mo-Sa 10:00-17:00","personnel_count":2,"mobile":9893090616,"rate_list":"no","ward_no":"043","ward_name":"SHRINAGAR"},{"latitude":22.74385382,"longitude":75.8483981,"amenity":"dental_clinic","operator":"private","name":"Sri Hari Geet Dental Clinic","name_hindi":"\nश्री हरि जीत दंत चिकित्सालय","opening_hours":"11:00-13:00;18:00-21:00","personnel_count":2,"mobile":9770907205,"rate_list":"no","ward_no":"010","ward_name":"BANGANGA"},{"latitude":22.712363,"longitude":75.88975176,"amenity":"dental_clinic","operator":"private","name":"St. Patrick'S Dental Clinic","name_hindi":"पेट्रिकस डेंटल क्लीनिक","opening_hours":"Mo-Sa 08:00-13:00 ; 15:30-18:00","personnel_count":0,"phone_number":7312492017,"rate_list":"no","ward_no":"048","ward_name":"GITA BHAVAN"},{"latitude":22.69567456,"longitude":75.83888714,"amenity":"dental_clinic","operator":"private","name":"Star Dental Clinic","name_hindi":"स्टार डेंटल क्लिनिक","opening_hours":"Mo-Sa 10:30-20:00","personnel_count":3,"mobile":7748811405,"rate_list":"no","ward_no":"071","ward_name":"DRAVID NAGAR"},{"latitude":22.66673224,"longitude":75.82586137,"amenity":"dental_clinic","operator":"private","name":"Sumit Dental Clinic","name_hindi":"सुमित डेंटल क्लीनिक","opening_hours":"Mo-Fr 10:30-13:30;17:30-20:30","personnel_count":1,"mobile":9993693920,"rate_list":"no","ward_no":"080","ward_name":"DR. RAJENDRA PRASAD"},{"latitude":22.68614392,"longitude":75.82461311,"amenity":"dental_clinic","operator":"private","name":"Sumit Dental Clinic","name_hindi":"सुमित डेंटल क्लीनिक","opening_hours":"mo-sa 10:00-13:30; 17:00-21:00","personnel_count":2,"mobile":9993693920,"rate_list":"no","ward_no":"082","ward_name":"SUDAMA NAGAR"},{"latitude":22.75641233,"longitude":75.88928072,"amenity":"dental_clinic","operator":"private","name":"Surana Dental Clinic","name_hindi":"#N/A","opening_hours":"Mo-Sa 10:00-13:00;14:00-20:00","personnel_count":4,"phone_number":7312571793,"mobile":9425921793,"rate_list":"no","ward_no":"029","ward_name":"DR. SHYAM PRASAD MUKHARJI"},{"latitude":22.72066434,"longitude":75.85497093,"amenity":"dental_clinic","operator":"private","name":"Sv Dental Clinic","name_hindi":"एसवी दंत चिकित्सा क्लिनिक","opening_hours":"10:00-20:00","personnel_count":4,"mobile":9039473131,"rate_list":"no","ward_no":"058","ward_name":"IMLI BAZAR"},{"latitude":22.73811767,"longitude":75.88785147,"amenity":"dental_clinic","operator":"private","name":"Tejas Polyclinic","name_hindi":"तेजस पॉलीक्लिनिक","personnel_count":2,"rate_list":"no","ward_no":"045","ward_name":"DR. BHIMRAO AMBEDAR"},{"latitude":22.73582577,"longitude":75.88372105,"amenity":"dental_clinic","operator":"private","name":"The Dental World","name_hindi":"#N/A","opening_hours":"Mo-fr 10:00-14:00;16:00-21:00","personnel_count":2,"mobile":7247567408,"rate_list":"no","ward_no":"026","ward_name":"JEEN MATA"},{"latitude":22.72681653,"longitude":75.88228537,"amenity":"dental_clinic","operator":"private","name":"The Dentist","name_hindi":"द डेंटिस्ट","opening_hours":"Mon-Sat 10:00-19:00","personnel_count":4,"phone_number":7312543132,"mobile":9425066462,"rate_list":"no","ward_no":"047","ward_name":"SARDAR VALLABHBHAI"},{"latitude":22.706255,"longitude":75.82043333,"amenity":"dental_clinic","operator":"private","name":"The Great Smile Dental Clinic","name_hindi":"द ग्रेट स्माइल ङेन्टल क्लिनिक","opening_hours":"Mo-Sa11:00-13:00; 18:30-21:30","personnel_count":2,"mobile":8889115493,"rate_list":"no","ward_no":"001","ward_name":"SIRPUR"},{"latitude":22.7186817,"longitude":75.88681162,"amenity":"dental_clinic","operator":"private","name":"The Retreat Clinic","name_hindi":"द रिट्रीट क्लीनिक","opening_hours":"Mo-Su 18:00-20:30","personnel_count":6,"phone_number":7312492032,"rate_list":"no","ward_no":"048","ward_name":"GITA BHAVAN"},{"latitude":22.72386107,"longitude":75.87429717,"amenity":"dental_clinic","operator":"private","name":"The Shining 32","name_hindi":"द शाइनिंग 32","opening_hours":"Mo-su10:00-14:00 ;16:00 -21:00","personnel_count":2,"phone_number":"086021 79039","rate_list":"no","ward_no":"047","ward_name":"SARDAR VALLABHBHAI"},{"latitude":22.68090871,"longitude":75.83492531,"amenity":"dental_clinic","operator":"private","name":"The Smile Store","name_hindi":"दी स्माइल स्टोर","opening_hours":"Mo-Sa 10:00-14:00; 17:00-21:00","personnel_count":3,"mobile":9826049045,"rate_list":"no","ward_no":"080","ward_name":"DR. RAJENDRA PRASAD"},{"latitude":22.72309234,"longitude":75.89707629,"amenity":"dental_clinic","operator":"private","name":"Tongya'sDental Clinic","name_hindi":"#N/A","opening_hours":"Mo-Sa 09:30-14:00; 17:30-20:30","personnel_count":3,"mobile":9826650575,"rate_list":"no","ward_no":"042","ward_name":"SWAMI VIVEKANAND"},{"latitude":22.7209092,"longitude":75.90170524,"amenity":"dental_clinic","operator":"private","name":"Unique Dental Clinic","name_hindi":"अद्वितीय दंत चिकित्सा क्लिनिक","opening_hours":"10:30-14:00;17:00-21:00","personnel_count":3,"mobile":9893422518,"rate_list":"no","ward_no":"042","ward_name":"SWAMI VIVEKANAND"},{"latitude":22.72126105,"longitude":75.89843245,"amenity":"dental_clinic","operator":"private","name":"Varad Dental Clinic","name_hindi":"वरद दंत चिकित्सालय","opening_hours":"Mo-Sa 11:00-14:00;17:00-20:00 ;Su 11:00-14:00","personnel_count":2,"mobile":9826680219,"rate_list":"no","ward_no":"042","ward_name":"SWAMI VIVEKANAND"},{"latitude":22.71894196,"longitude":75.85229771,"amenity":"dental_clinic","operator":"private","name":"Verma Dental Clinic","name_hindi":"वर्मा डेंटल क्लीनिक","opening_hours":"17:00-20:00","personnel_count":2,"rate_list":"no","ward_no":"058","ward_name":"IMLI BAZAR"},{"latitude":22.71905595,"longitude":75.85324141,"amenity":"dental_clinic","operator":"private","name":"Verma Dental Clinic","name_hindi":"वर्मा डेंटल क्लीनिक","opening_hours":"Mo-Sa 19:00-21:00","personnel_count":2,"phone_number":"0731 254 6707","rate_list":"no","ward_no":"058","ward_name":"IMLI BAZAR"},{"latitude":22.68160638,"longitude":75.8345054,"amenity":"dental_clinic","operator":"private","name":"Vishesh Dental Clinic","name_hindi":"विशेष डेंटल क्लीनिक","opening_hours":"Mo-Sa 10:00-13:30","personnel_count":4,"mobile":9926776961,"rate_list":"no","ward_no":"080","ward_name":"DR. RAJENDRA PRASAD"},{"latitude":22.68173035,"longitude":75.83444398,"amenity":"dental_clinic","operator":"private","name":"Vishesh Dental Clinic","name_hindi":"विशेष डेंटल क्लीनिक","opening_hours":"10:00-13:30;17:30-21:00","personnel_count":2,"mobile":9926776961,"rate_list":"no","ward_no":"080","ward_name":"DR. RAJENDRA PRASAD"},{"latitude":22.72462833,"longitude":75.825235,"amenity":"dental_clinic","operator":"private","name":"Well Care Dental Hospital","name_hindi":"वेल केयर ङेंटल हॉस्पिटल","opening_hours":"Mo-Sa09:00-14:00;16:00-22:00","personnel_count":1,"mobile":9926777225,"rate_list":"no","ward_no":"004","ward_name":"SUKHDEV NAGAR"},{"latitude":22.69659175,"longitude":75.83437324,"amenity":"dental_clinic","operator":"private","name":"Yuvika Dental Care","name_hindi":"युविका डेंटल केयर","opening_hours":"Mo-Sa 10:00-13:00;17:30-21:00","personnel_count":1,"mobile":7987553983,"rate_list":"no","ward_no":"071","ward_name":"DRAVID NAGAR"}]}