{"dentists":[{"latitude":22.74759155,"longitude":75.89843972,"precision":4.5509996,"amenity":"clinic","operator_type":"private","name":"Review Clinic","name_hindi":"रिव्यू क्लीनिक","address":"113,Ratnok Colony, Sch No 53","mobile":"8305692849","opening_hours":"Sa-Su 07:00-09:00;17:00-21:00","operator":"Manoj Kumar Gupta","personnel_count":2,"facilities":"General_Physician","rate_list":"no","ward_no":"031","ward_name":"MAHARAJA CHATRASAL"},{"latitude":22.74327057,"longitude":75.89990439,"precision":4.5509996,"amenity":"clinic","operator_type":"private","name":"Namami Homeo Clinic ","name_hindi":"नमामि होम्यो क्लीनिक","address":"100, Anil Nagar, Mr-9","mobile":"6265455027","operator":"Manisha Jaiswal","personnel_count":2,"facilities":"Physiologist","rate_list":"no","ward_no":"030","ward_name":"SANT RAVIDAS"},{"latitude":22.74205449,"longitude":75.89869637,"precision":4.5509996,"amenity":"clinic","operator_type":"private","name":"Dr. Aruna Patel","name_hindi":"डॉ अरुणा पटेल","address":"A-1, Shradhhashree Colony, Mr-9","opening_hours":"Sa-Su 10:00-12:00;19:00-20:00","operator":"Aruna Patel","personnel_count":2,"facilities":"Gynecologist, Obstetrician","rate_list":"no","ward_no":"030","ward_name":"SANT RAVIDAS"},{"latitude":22.74206302,"longitude":75.89868098,"precision":4.5509996,"amenity":"clinic","operator_type":"private","name":"Dr. O.P. Goyal","name_hindi":"डॉ आे पी गोयल","address":"A-1 , Shradhhashree Colony, Mr-9 ","mobile":"9425055318","opening_hours":"Mo-Sa 09:00-11:00;19:00-21:00","operator":"O P Goyal","personnel_count":2,"facilities":"Gynecologist, Obstetrician","rate_list":"no","ward_no":"030","ward_name":"SANT RAVIDAS"},{"latitude":22.74150746,"longitude":75.90012433,"precision":4.5509996,"amenity":"clinic","operator_type":"private","name":"Paras Homeopathic Clinic ","name_hindi":"पारस होम्योपैथिक क्लीनिक","address":"118, Shradhhashree Colony, Mr-9","mobile":"9691741877","website":"www.parashomeopathic.in","email":"info@parashomeopathic.in","opening_hours":"Sa-Su 12:00-14:00;19:30-21:30","operator":"D C Jain","personnel_count":3,"facilities":"General_Physician","rate_list":"no","ward_no":"030","ward_name":"SANT RAVIDAS"},{"latitude":22.74161834,"longitude":75.89575726,"precision":4.5509996,"amenity":"clinic","operator_type":"private","name":"Aashriwaad Clinic","name_hindi":"आशीर्वाद क्लीनिक","mobile":"7694074420","opening_hours":"Sa-Su 11:00-14:00;18:00-21:00","operator":"Asha Khandwekar","personnel_count":2,"facilities":"General_Physician","rate_list":"no","ward_no":"030","ward_name":"SANT RAVIDAS"},{"latitude":22.74248118,"longitude":75.89462245,"precision":4.5509996,"amenity":"clinic","operator_type":"private","name":"Eriatric Grin","name_hindi":"एरियात्रिक ग्रीन","mobile":"9039395782","operator":"Archana Bhagoriya","personnel_count":2,"facilities":"Physiologist","rate_list":"no","ward_no":"044","ward_name":"H.I.G."},{"latitude":22.74328996,"longitude":75.89571345,"precision":4.5509996,"amenity":"clinic","operator_type":"private","name":"Hamidiya Clinic ","name_hindi":"हमीदिया क्लीनिक","mobile":"9074802311","opening_hours":"Sa-Su 11:00-14:00;18:30-22:00","operator":"Shahid Khan, M Hanif Khan","personnel_count":4,"facilities":"General_Physician","rate_list":"no","ward_no":"044","ward_name":"H.I.G."},{"latitude":22.7280339,"longitude":75.8942249,"precision":8,"amenity":"clinic","operator_type":"private","name":"O.P. Dubey","name_hindi":"ओ पी दुबे","operator":"O P Dubey","personnel_count":5,"facilities":"General_Physician","rate_list":"no","ward_no":"043","ward_name":"SHRINAGAR"},{"latitude":22.72889198333333,"longitude":75.89443511666667,"precision":9,"amenity":"clinic","operator_type":"private","name":"Dr. Ajit K Jain","name_hindi":"डॉ अजित के जैन","address":"Anand Bazaar Main Road","phone":"07312562838","mobile":"9425313142","opening_hours":"9-2:30.   6-9:00","operator":"Ajit K Jain","personnel_count":6,"facilities":"General_Physician","rate_list":"no","ward_no":"043","ward_name":"SHRINAGAR"},{"latitude":22.72891028333333,"longitude":75.89438385,"precision":8,"amenity":"clinic","operator_type":"private","name":"Dr. Mandeep Kaur Mehta","name_hindi":"डॉ मनदीप कौर","address":"Anand Bazaar Main Road","mobile":"9425053290","opening_hours":"10:00-1:00,,,4:30-6:30","operator":"Mandeep Kaur, Piyush Gandhi","personnel_count":7,"facilities":"General_Physician","rate_list":"no","ward_no":"043","ward_name":"SHRINAGAR"},{"latitude":22.73065103333333,"longitude":75.89211151666667,"precision":6,"amenity":"clinic","operator_type":"private","name":"Dr. Amit Julkआ","name_hindi":"डॉ अमीत जुल्का","address":"201, अनूप नगर","operator":"Amit Julka, Sandeep Julka","personnel_count":5,"facilities":"Endocrinologist","rate_list":"no","ward_no":"043","ward_name":"SHRINAGAR"},{"latitude":22.73244523333334,"longitude":75.89278555,"precision":6,"amenity":"clinic","operator_type":"private","name":"Dr. Alok Verma","name_hindi":"डॉ आलोक वर्मा","address":"N-90 Anoop Nagar ","opening_hours":"Mo-Sau","operator":"Alok Verma","personnel_count":2,"facilities":"Orthopaedic","rate_list":"no","ward_no":"043","ward_name":"SHRINAGAR"},{"latitude":22.72953056666667,"longitude":75.89711823333333,"precision":6,"amenity":"clinic","operator_type":"private","name":"Dr. Rakhi Bharat","name_hindi":"डॉ रखी भरत","address":"104, Mangalam Arcade","phone":"07312565610","mobile":"9302596123","opening_hours":"Mo-Sa 10:00-14:00, 13:00-20:00","operator":"Rakhi Bharat","personnel_count":4,"facilities":"Dentist,  ","rate_list":"no","ward_no":"042","ward_name":"SWAMI VIVEKANAND"},{"latitude":22.72936973333334,"longitude":75.89680028333333,"precision":8,"amenity":"clinic","operator_type":"private","name":"Dr. Saurabh Pachori","name_hindi":"डॉ सौरभ पचौरी","address":"Chandralok Square, Opp Sns Hospital","mobile":"7771800040","opening_hours":"Mo-Sa 19:30-21:00","operator":"Saurabh Pachori","personnel_count":2,"facilities":"General_Physician","rate_list":"no","ward_no":"042","ward_name":"SWAMI VIVEKANAND"},{"latitude":22.72954858333333,"longitude":75.89698926666667,"precision":9,"amenity":"clinic","operator_type":"private","name":"Dr. Afzal Banglowala","name_hindi":"डॉ अफ़ज़ल बंग्लोवाला","address":"Chandralok Square,Near Sns Hospital","mobile":"9827010807","opening_hours":"Mo-Sa 11:30-2:30,19:00-21:00","operator":"Afzal Banglowala","personnel_count":3,"facilities":"Obstetrician","rate_list":"no","ward_no":"043","ward_name":"SHRINAGAR"},{"latitude":22.72929561666666,"longitude":75.89638481666665,"precision":8,"amenity":"clinic","operator_type":"private","name":"Dr. Satish Kumar","name_hindi":"डॉ सतीश कुमार","address":"Ravi Nagar Colony, Khajrana Main Road","operator":"Satish Kumar, Akshay Phandse","personnel_count":4,"facilities":"General_Physician","rate_list":"no","ward_no":"043","ward_name":"SHRINAGAR"},{"latitude":22.73018036666667,"longitude":75.89843935,"precision":8,"amenity":"clinic","operator_type":"private","name":"Dr. Ashok Nagla","name_hindi":"डॉ अशोक नागला","address":"68,Shri Nagar Extension Main Road","mobile":"9977077718","opening_hours":"Mo-Sa 10:00-13:00","operator":"Ashok Nagla","personnel_count":4,"facilities":"Orthopedic, Surgeon","rate_list":"no","ward_no":"042","ward_name":"SWAMI VIVEKANAND"},{"latitude":22.730383,"longitude":75.89893183333334,"precision":6,"amenity":"clinic","operator_type":"private","name":"Dr. Sarika Jayaswal","name_hindi":"डॉ सारिका जायसवाल","address":"Silver Wing Appartment","mobile":"9826241007","opening_hours":"Mo-Sa 12:00-14:00; Mo-Sa 18:00-20:30","operator":"Sarika Jayaswal","personnel_count":3,"facilities":"Gynecologist","rate_list":"no","ward_no":"042","ward_name":"SWAMI VIVEKANAND"},{"latitude":22.72827645,"longitude":75.89492493333334,"precision":6,"amenity":"clinic","operator_type":"private","name":"Dr. Anita Inani","name_hindi":"डॉ अनिता ईनाणी","address":"319, Goyal Vihar Colony","mobile":"9827071942","opening_hours":"Mo-Sa 11:00-13:00; Mo-Sa 15:00-21:00","operator":"Anita Inani, Shyam Inani","personnel_count":6,"facilities":"Gynecologist, Physiologist","rate_list":"no","ward_no":"043","ward_name":"SHRINAGAR"},{"latitude":22.72802265,"longitude":75.89415429,"precision":4.5509996,"amenity":"clinic","operator_type":"private","name":"Samarpit","name_hindi":"समर्पित","address":"78,Shrinagar Colony,Anand Bazar ,Indore","phone":"07314278508","mobile":"9826033636","opening_hours":"Mo-Sa 10:00-13:00;18:00-20:00","operator":"Shubhangi Nirkhiwale, Abhijeet Soni, Vivek Pathak, Amit Maheshwari","personnel_count":5,"facilities":"Gynecologist, Neurologist, Obstetrician, Physiologist","rate_list":"no","ward_no":"043","ward_name":"SHRINAGAR"},{"latitude":22.72850021,"longitude":75.89418966,"precision":4.5509996,"amenity":"clinic","operator_type":"private","name":"Multispeciality Physiotherapy Clinic","name_hindi":"मल्टीस्पेशलिटी फिजियोथेरेपी क्लिनिक","address":"130 Shrinagar Main,Near Anand Bazar ,Indore","mobile":"9893427793","opening_hours":"Mo-Sa 10:00-14:30;17:00-21:00","operator":"Abhishek Shoti","personnel_count":2,"facilities":"Physiologist","rate_list":"no","ward_no":"043","ward_name":"SHRINAGAR"},{"latitude":22.72911792,"longitude":75.89453382,"precision":4.5509996,"amenity":"clinic","operator_type":"private","name":"Eye Clinic","name_hindi":"ऑय क्लिनिक","address":"55,Shrinagar Main,Near Anand Bazar,Indore","phone":"07314257955","opening_hours":"Mo-Sa 18:00-20:00","operator":"Nitin Neema, Hv Neema","personnel_count":1,"facilities":"Ophthalmologist","rate_list":"no","ward_no":"043","ward_name":"SHRINAGAR"},{"latitude":22.72824085,"longitude":75.8936887,"precision":4.5509996,"amenity":"clinic","operator_type":"private","name":"Dr. Vijay Bhaisare","name_hindi":"Dr. Vijay Bhaisare","address":"105,Shrinagar Main,Near Anand Bazar,Indore","phone":"07312561033","opening_hours":"Mo-Sa 16:30-21:00","operator":"Vijay Bhaisare","personnel_count":1,"facilities":"Ophthalmologist","rate_list":"no","ward_no":"043","ward_name":"SHRINAGAR"},{"latitude":22.73138532,"longitude":75.89291932,"precision":4.5509996,"amenity":"clinic","operator_type":"private","name":"Dr. Abhay Manchanda","name_hindi":"डॉ अभय मनचंदा","address":"N-2 Anup Nagar,Near Anand Bazar,Indore","mobile":"9826044188","opening_hours":"Mo-Sa 18:00-20:00","operator":"Abhay Manchanda","personnel_count":1,"facilities":"Oncologist","rate_list":"no","ward_no":"043","ward_name":"SHRINAGAR"},{"latitude":22.73036982,"longitude":75.89707243,"precision":4.5509996,"amenity":"clinic","operator_type":"private","name":"Adriz Medical Centre","name_hindi":"अदृज़ मेडिकल सेन्टर","address":"Ground Floor,Ambika Regency 44,Shreenagar Extension,Indore","mobile":"7441107045","opening_hours":"Mo-Sa 10:00-12:00;17:00-20:00","operator":"S Irfan Ali","personnel_count":1,"facilities":"General_Physician","rate_list":"no","ward_no":"043","ward_name":"SHRINAGAR"},{"latitude":22.73095869,"longitude":75.89967236,"precision":4.5509996,"amenity":"clinic","operator_type":"private","name":"Pratyush Homeo Pharmacy & Clinic","name_hindi":"प्रत्युष होमियो फार्मेसी & क्लिनिक","address":"1,Ashiyana Palace,Khajrana Main Road,Indore","mobile":"9981733884","opening_hours":"Mo-Fr 19:30-20:30","operator":"Tripti Katdare","personnel_count":3,"facilities":"Homeopathy","rate_list":"no","ward_no":"042","ward_name":"SWAMI VIVEKANAND"},{"latitude":22.72817148,"longitude":75.8947209,"precision":4.5509996,"amenity":"clinic","operator_type":"private","name":"Dr. H Lalani","name_hindi":"डॉ ए च लालानी","address":"Ug-10 Ronak Towards,Anand Bazar,Indore","mobile":"9827022202","opening_hours":"Mo-Sa 19:30-20:30","operator":"H Lalani","personnel_count":1,"facilities":"Endocrinologist","rate_list":"no","ward_no":"043","ward_name":"SHRINAGAR"},{"latitude":22.72818868,"longitude":75.89488957,"precision":6.068,"amenity":"clinic","operator_type":"private","name":"Dr. Rani Manchanda","name_hindi":"डॉ रानी मनचंदा","address":"N-2 Anoop Nagar, Indore","mobile":"9826044188","opening_hours":"Mo-Sa 12:00-14:00; Mo-Sa 18:00-20:00","operator":"Rani Manchanda","personnel_count":6,"facilities":"Gynecologist","rate_list":"no","ward_no":"043","ward_name":"SHRINAGAR"},{"latitude":22.72826923,"longitude":75.89487985,"precision":4.5509996,"amenity":"clinic","operator_type":"private","name":"Advance Joint Replacement","name_hindi":"एडवांस जॉइंट रिप्लेसमेंट","address":"Flat No. 205 Ronak Towar,Anand Bazar,Indore","mobile":"9826897771","email":"drambermittal@gmail.com","opening_hours":"Mo-Sa 17:00-20:00","operator":"Amber Mittal","personnel_count":4,"facilities":"Orthopaedic, Surgeon","rate_list":"no","ward_no":"043","ward_name":"SHRINAGAR"},{"latitude":22.74024318,"longitude":75.89741124,"precision":4.288,"amenity":"clinic","operator_type":"private","name":"Dr.H C Mishra","name_hindi":"डॉ एच सी मिश्रा","address":"Krishna Bagh Colony,Indore","mobile":"7000723721","email":"hcm2481957@gmail.com","opening_hours":"Mo-Sa 09:00-13:00 ; 17:00-22:00","operator":"Dr H C Mishra","personnel_count":1,"facilities":"General_Physician","rate_list":"no","ward_no":"030","ward_name":"SANT RAVIDAS"},{"latitude":22.74171659,"longitude":75.89577341,"precision":3.216,"amenity":"clinic","operator_type":"private","name":"Ashirwaad Clinic","name_hindi":"आशीर्वाद क्लीनिक","address":"214/2 Malviya Nagar","mobile":"7694074420","opening_hours":"Mo-Sa 11:00-14:00; 18:00-21:00","operator":"Dr Asha Khandwekar","personnel_count":1,"facilities":"General_Physician","rate_list":"no","ward_no":"030","ward_name":"SANT RAVIDAS"},{"latitude":22.73788909,"longitude":75.89804001,"precision":4.288,"amenity":"clinic","operator_type":"private","name":"Mahi Clinic","name_hindi":"माही क्लीनिक","address":"Krishna Bagh,Indore","mobile":"9826834141","opening_hours":"Mo-Sa 08:00-13:00; 16:00-22:30","operator":"Dr Ajay Roy","personnel_count":1,"facilities":"General_Physician","rate_list":"no","ward_no":"030","ward_name":"SANT RAVIDAS"},{"latitude":22.74022363,"longitude":75.8974093,"precision":4.288,"amenity":"clinic","operator_type":"private","name":"Sai Chaya","name_hindi":"साईं छाया","address":"103 Krishna Bagh Colony,Indore","mobile":"9425054905","email":"rpmaheshwari00@gmail.com","opening_hours":"Mo-Sa 08:00-22:00 ","operator":"Rajesh P Maheshwari, L R Mandloi","personnel_count":1,"facilities":"General_Physician","rate_list":"no","ward_no":"030","ward_name":"SANT RAVIDAS"},{"latitude":22.73557964,"longitude":75.89579542,"precision":4.288,"amenity":"clinic","operator_type":"private","name":"Sparsh Chikitsa","name_hindi":"स्पर्श चिकित्सा","address":"4 Anurag Nagar,Indore","mobile":"9425349077","opening_hours":"Mo-Sa 18:00-20:00","operator":"Dr Surendra Gandhi, Kalpana Gandhi","personnel_count":1,"facilities":"Neurologist","rate_list":"no","ward_no":"030","ward_name":"SANT RAVIDAS"},{"latitude":22.73363362,"longitude":75.88984968,"precision":5,"amenity":"clinic","operator_type":"private","address":"21/1 Lig Chouraha","phone":"07314060055","mobile":"7879791661","opening_hours":"Mo-Su 11:00-13:00; 17:00-19:00","operator":"Dr Pallavi Kalantri","personnel_count":1,"facilities":"Pediatrician","rate_list":"no","ward_no":"045","ward_name":"DR. BHIMRAO AMBEDAR"},{"latitude":22.73362721,"longitude":75.88984685,"precision":5,"amenity":"clinic","operator_type":"private","address":"21/1 Lig Chouraha","mobile":"9009266651","opening_hours":"Mo-Su 18:00-21:00","operator":"Dr Abhishek Kalantri","personnel_count":1,"facilities":"Orthoscopic,Surgeon Bone,, Problems","rate_list":"no","ward_no":"045","ward_name":"DR. BHIMRAO AMBEDAR"},{"latitude":22.73238753,"longitude":75.89027972,"precision":5,"amenity":"clinic","operator_type":"private","name":"Ojas Clinic","name_hindi":"ओजस क्लिनिक","address":"11/6 Anoop Nagar,Opp.Chl Hospital,A.B.Road","phone":"07314988026","mobile":"7999451291","operator":"Dr Sanjay Pancholi","personnel_count":1,"facilities":"Allergist, Dermatologist, Hair Transplant Specialist","rate_list":"no","ward_no":"043","ward_name":"SHRINAGAR"},{"latitude":22.73220306,"longitude":75.89039926,"precision":5,"amenity":"clinic","operator_type":"private","address":"10,Anoop Nagar","operator":"Dr Atul Vyas","personnel_count":1,"facilities":"General Surgeon","rate_list":"no","ward_no":"043","ward_name":"SHRINAGAR"},{"latitude":22.73142063,"longitude":75.89074002,"precision":5,"amenity":"clinic","operator_type":"private","name":"Saaol Heart Center","name_hindi":"साओल हार्ट सेंटर","address":"100 Anoop Nagar,Mangalam Residency ,Opp Chl Hospital","phone":"07314022777","mobile":"7723911555","website":"saaol Heart center.com","email":"Saaolindore@gmail.com","opening_hours":"Mo-Sa 9:00-20:00","operator":"Dr Vimal Chhajad","personnel_count":6,"facilities":"Cardiologist","rate_list":"no","ward_no":"043","ward_name":"SHRINAGAR"},{"latitude":22.73133296,"longitude":75.89126995,"precision":5,"amenity":"clinic","operator_type":"private","address":"10 ,Anoop Nagar","operator":"Dr Hd Siddiqui, Dr Alim Siddiqui, Dr Simeen Siddiqui, Dr Saad Siddiqui","personnel_count":4,"facilities":"Pediatrician,  Orthopedic Consultant, Family Physician","rate_list":"no","ward_no":"043","ward_name":"SHRINAGAR"},{"latitude":22.73136979,"longitude":75.89129693,"precision":5,"amenity":"clinic","operator_type":"private","name":"Asthimya O Spine And Sports Injury Clinic","address":"134,Anoop Nagar","phone":"07314992786","mobile":"9886944703","opening_hours":"Mo-Sa 8:00-20:00","operator":"Dr Priyanka Tiwari","personnel_count":5,"facilities":"Physiotherapist","rate_list":"no","ward_no":"043","ward_name":"SHRINAGAR"},{"latitude":22.7312396,"longitude":75.89133142,"precision":5,"amenity":"clinic","operator_type":"private","name":"Pahwas Kidney Care Centre","address":"109,Anoop Nagar","phone":"07314033959","opening_hours":"Mo-Sa 14:00-18:00","operator":"Dr Naresh Pahwa, Dr Jyoti Pahwa","personnel_count":2,"facilities":"Kidney Diseases Specialist","rate_list":"no","ward_no":"043","ward_name":"SHRINAGAR"},{"latitude":22.73250125,"longitude":75.89164721,"precision":5,"amenity":"clinic","operator_type":"private","address":"164 Anoop Nagar","phone":"07312550801","opening_hours":"Mo-Sa 10:00-13:00; 17:30-19:00","operator":"Dr Vinita Vaidhya","personnel_count":3,"facilities":"Gynecologist","rate_list":"no","ward_no":"043","ward_name":"SHRINAGAR"},{"latitude":22.73246958,"longitude":75.89156478,"precision":5,"amenity":"clinic","operator_type":"private","name":"Indore Spine Centre","address":"126 ,Anoop Nagar","mobile":"8889744448","opening_hours":"Mo-Sa 14:00-16:09","operator":"Dr Prasad R Patgaonkar, Dr Priyanka Patgaonkar","personnel_count":10,"facilities":"Spine, Surgeon","rate_list":"no","ward_no":"043","ward_name":"SHRINAGAR"},{"latitude":22.73314517,"longitude":75.88793826,"precision":5,"amenity":"clinic","operator_type":"private","phone":"07312538538","mobile":"9826053853","opening_hours":"Mo-Su 12:00-13:00; 18:00-20:00","operator":"Dr Vineet Gupta","personnel_count":1,"facilities":"Ent,  ","rate_list":"no","ward_no":"045","ward_name":"DR. BHIMRAO AMBEDAR"},{"latitude":22.73162528,"longitude":75.88867468,"precision":5,"amenity":"clinic","operator_type":"private","operator":"Dr Shrikant Vaidya","personnel_count":1,"facilities":"Urologist","rate_list":"no","ward_no":"045","ward_name":"DR. BHIMRAO AMBEDAR"},{"latitude":22.73091223,"longitude":75.88875732,"precision":10,"amenity":"clinic","operator_type":"private","name":"Sanjeevni Nursing Home","address":"1-A Phadnis Colony","phone":"07312542020","opening_hours":"24/7","operator":"Dr Vk Agrawal","personnel_count":6,"facilities":"Surgeon","rate_list":"no","ward_no":"045","ward_name":"DR. BHIMRAO AMBEDAR"},{"latitude":22.73090039,"longitude":75.88867007,"precision":5,"amenity":"clinic","operator_type":"private","address":"137,Phadnis Colony","phone":"07312533388","mobile":"9165007134","operator":"Dr Anant Kumar Jinsiwale","personnel_count":2,"facilities":"Orthopedic, Surgeon","rate_list":"no","ward_no":"045","ward_name":"DR. BHIMRAO AMBEDAR"},{"latitude":22.73468073,"longitude":75.88852976,"precision":5,"amenity":"clinic","operator_type":"private","name":"Mahajan Memorial","phone":"0731544066","operator":"Dr Sanjay Gupta, Dr Alka Gupta","personnel_count":2,"facilities":"Dentist, Ent","rate_list":"no","ward_no":"045","ward_name":"DR. BHIMRAO AMBEDAR"},{"latitude":22.73485822,"longitude":75.88766569,"precision":5,"amenity":"clinic","operator_type":"private","address":"B/42 Mig Colony","operator":"Dr Vijay Hawaldar, Dr Ranjana Hawaldar, Dr Sanjay Hawaldar, Dr Asmita Hawaldar","personnel_count":5,"facilities":"Dentist, Oncologist, Ent, Pathologist","rate_list":"no","ward_no":"045","ward_name":"DR. BHIMRAO AMBEDAR"},{"latitude":22.73225251,"longitude":75.8859403,"precision":5,"amenity":"clinic","operator_type":"private","address":"B-159 Mig Colony","operator":"Dr Mukesh Bhachawat","personnel_count":1,"facilities":"Pediatrician","rate_list":"no","ward_no":"045","ward_name":"DR. BHIMRAO AMBEDAR"},{"latitude":22.7338344,"longitude":75.88626292,"precision":5,"amenity":"clinic","operator_type":"private","name":"Devesh Clinic","name_hindi":"देवेश क्लिनिक","address":"370 ,Ambedkar Nagar","opening_hours":"Mo-Sa 11:00-14:00; 19:00-22:00\nSu 11:00-14:00","operator":"Dr Pramod Basod","personnel_count":1,"facilities":"General_Physician","rate_list":"no","ward_no":"045","ward_name":"DR. BHIMRAO AMBEDAR"},{"latitude":22.73374676,"longitude":75.88760594,"precision":3,"amenity":"clinic","operator_type":"private","address":"A/4 Mig Colony","opening_hours":"Mo-Fr 18:00-20:00","operator":"Dr Anjali Masand","personnel_count":2,"facilities":"Gynecologist","rate_list":"no","ward_no":"045","ward_name":"DR. BHIMRAO AMBEDAR"},{"latitude":22.74157753,"longitude":75.89516705,"precision":4.5509996,"amenity":"clinic","operator_type":"private","name":"Dr Pritesh Vyas","name_hindi":"डॉ प्रीतेश व्यास","address":"B-57, Chandra Nagar, Indore","mobile":"9630378795","website":"www.indorejointreplacement.com","email":"animeshtayal@gmail.com","opening_hours":"Mo-Tu 18:00-20:00 ; Th-Fr","operator":"Dr Pritesh Vyas","personnel_count":1,"facilities":"Orthopedic","rate_list":"no","ward_no":"044","ward_name":"H.I.G."},{"latitude":22.74134849,"longitude":75.89533558,"precision":4.5509996,"amenity":"clinic","operator_type":"private","name":"Dr.Arun Vishnar","name_hindi":"डॉ. अरुण विष्नार","address":"B-58 Chandra Nagar","mobile":"9425066180","opening_hours":"Mo-Sa 20:00-21:00","operator":"Dr Arun Vishnar","personnel_count":1,"facilities":"General, Physician, Gastroenrologist,Hepatologist, Endoscopist","rate_list":"no","ward_no":"044","ward_name":"H.I.G."},{"latitude":22.7362341,"longitude":75.89547549,"precision":"4.55N/A9996","amenity":"clinic","operator_type":"private","name":"Life Line Clinic","name_hindi":"लाईफ लाइन क्लीनिक","address":"324/2 Malviya Nagar, Indore","opening_hours":"Mo-Sa 19:N/AN/A-21:N/AN/A","operator":"Yashmi Khan","personnel_count":"N/A","facilities":"General_Physician","rate_list":"no","ward_no":"030","ward_name":"SANT RAVIDAS"},{"latitude":22.73731622,"longitude":"75.8957N/A181","precision":"4.55N/A9996","amenity":"clinic","operator_type":"private","name":"Dr Ashok Pal","name_hindi":"डॉ अशोक पाल","address":"191/2 Malviya Nagar","opening_hours":"Mo-Sa 1N/A:N/AN/A-13:N/AN/A ; 18:N/AN/A-21:N/AN/A","operator":"Dr Ashok Pal","personnel_count":"N/A","facilities":"General_Physician","rate_list":"no"},{"latitude":22.74051823,"longitude":75.8974242,"precision":6.068,"amenity":"clinic","operator_type":"private","name":"S.K Clinic","name_hindi":"एस.के क्लीनिक","address":"110, Krishna Bag Colony, Barfani Dham, Indore","mobile":"9009696836","email":"santosh.saims@gmail.com","opening_hours":"Mo-Sa 10:00-13:00 ; 18:00-21:00","operator":"Dr Santosh Sourashtriya","personnel_count":1,"facilities":"General_Physician","rate_list":"no","ward_no":"030","ward_name":"SANT RAVIDAS"},{"latitude":22.74099854,"longitude":75.89726895,"precision":4.5509996,"amenity":"clinic","operator_type":"private","name":"Dr Rashmi Yadav","name_hindi":"डॉ रश्मि यादव","address":"220 Barfani Nagar, Indore","mobile":"8253091738","opening_hours":"Mo-Sa 10:00-13:30 ; 18:00-21:30","operator":"Dr Rashmi Yadav","personnel_count":1,"facilities":"General_Physician","rate_list":"no","ward_no":"030","ward_name":"SANT RAVIDAS"},{"latitude":22.73999037,"longitude":75.89962471,"precision":4.5509996,"amenity":"clinic","operator_type":"private","name":"S.K Clinic","name_hindi":"एस.के क्लीनिक","address":"36, Shradhha Shri Colony","mobile":"9981562676","email":"sanjaykochale@gmail.com","opening_hours":"Mo-Sa 09:00-12:00 ; 18:00-21:00","operator":"Dr Sanjay Kochale","personnel_count":1,"facilities":"General_Physician","rate_list":"no","ward_no":"030","ward_name":"SANT RAVIDAS"},{"latitude":22.73912784,"longitude":75.88056118,"precision":5,"amenity":"clinic","operator_type":"private","name":"Clinic","name_hindi":"क्लिनिक","address":"Patnipura Square","phone":"0731243545","mobile":"9827302457","opening_hours":"Mo-Fr 11:30-14:30;18:30-22:00","operator":"Dr Mahesh Shah","personnel_count":1,"facilities":"General_Physician","rate_list":"no","ward_no":"026","ward_name":"JEEN MATA"},{"latitude":22.73201929405332,"longitude":75.87324785068631,"precision":4,"amenity":"clinic","operator_type":"private","name":"Dr Gopal R Goyal","name_hindi":"डॉ गोपाल आर गोयल","address":"55 New Dewas Road","opening_hours":"19:00- 21:30","operator":"Dr Gopal R Goyal","personnel_count":1,"facilities":"General_Physician","rate_list":"no","ward_no":"047","ward_name":"SARDAR VALLABHBHAI"},{"latitude":22.73194117471576,"longitude":75.87382905185223,"precision":6,"amenity":"clinic","operator_type":"private","name":"Dr Alok Jain","address":"10/20 Yashwant Niwas Road","phone":"07312540114","mobile":"9425313251","email":"dralokjain11@gmail.com","opening_hours":"mon sat11:30 - 13:00; 18:30-20:00","operator":"Dr Alok Jain","personnel_count":1,"facilities":"Orthopaedic And  Diabetic, Foot, Surgeon","rate_list":"no","ward_no":"047","ward_name":"SARDAR VALLABHBHAI"},{"latitude":22.74074424,"longitude":75.88343831,"precision":5,"amenity":"clinic","operator_type":"private","name":"Anand Clinic","name_hindi":"आनंद क्लीनिक ","address":"303 Jagjivan Ram Nagar","mobile":"9827552986","opening_hours":"Mo - Su 9:30-13:30;18:00-21:30","operator":"Dr Anand Likhar","personnel_count":1,"facilities":"General_Physician","rate_list":"no","ward_no":"044","ward_name":"H.I.G."},{"latitude":22.73000361397862,"longitude":75.87322052568197,"precision":7,"amenity":"clinic","operator_type":"private","name":"Dr Pradeep Choudhary","name_hindi":" डॉ प्रदीप चौधरी","address":"7/3/3 New Dewas Road, Ahilya Mata Colony","mobile":"9826053328","opening_hours":"mo-sa 09:00-10:00","operator":"Dr Pradeep Choudhary","personnel_count":1,"facilities":"Orthopaedist","rate_list":"no","ward_no":"047","ward_name":"SARDAR VALLABHBHAI"},{"latitude":22.73878671,"longitude":75.88233535,"precision":5,"amenity":"clinic","operator_type":"private","name":"Dr Yogesh Johri Clinic","name_hindi":"डॉ। योगेश जौहरी क्लिनिक","address":"172 Nehru Nagar","opening_hours":"Mo-Fr 10:30-13:30;19:00-21:30","operator":"Dr Yogesh Johri","personnel_count":2,"facilities":"General_Physician","rate_list":"no","ward_no":"026","ward_name":"JEEN MATA"},{"latitude":22.72838318254799,"longitude":75.87280939333141,"precision":6,"amenity":"clinic","operator_type":"private","name":"Aahaar Expert","name_hindi":"आहार एक्सपर्ट ","address":"Hari Chhavi, 24, Joy Builders Colony, Inside Rani Sati Gate, Y.N Road, Indore","mobile":"9009013363","website":"www.aahaarexpert.com","email":"vinita@aahaarexpert.com","opening_hours":"Mo-sa 17:30-20:30; Su 10:00-13:30","operator":"Vinita Jaiswal ","personnel_count":1,"facilities":"Dietician","rate_list":"no","ward_no":"047","ward_name":"SARDAR VALLABHBHAI"},{"latitude":22.73832069,"longitude":75.88322224,"precision":5,"amenity":"clinic","operator_type":"private","name":"Jn Polyclinic","name_hindi":"जेएन पॉलीक्लिनिक","address":"Nehru Nagar","operator":"Dr Sanjay Dubey, Dr K Raysanghani, Dr M Soni, Doctor Indira Soni","personnel_count":6,"facilities":"Gynecologist, Obstetrician, Physiologist, Urologist","rate_list":"no","ward_no":"044","ward_name":"H.I.G."},{"latitude":22.73671641,"longitude":75.88208313,"precision":5,"amenity":"clinic","operator_type":"private","name":"Kimirot'S Darma Care","name_hindi":"किमिरोट की कर्म देखभाल","address":"Nehru Nagar","opening_hours":"Mo-fr 19:00-21:00","operator":"Doctor Alka Mimrot","personnel_count":2,"facilities":"Allergist","rate_list":"no","ward_no":"026","ward_name":"JEEN MATA"},{"latitude":22.73190789856017,"longitude":75.87471879087389,"precision":7,"amenity":"clinic","operator_type":"private","name":"Dr Vijay Hawaldar","name_hindi":"डॉ विजय हवलदार","address":"19/1 Yashwant Niwas Road, Indore","phone":"07312436800","opening_hours":"mo-sa 18:00-20:30","operator":"Dr Vijay Hawaldaar ","personnel_count":1,"facilities":"Ent","rate_list":"no","ward_no":"047","ward_name":"SARDAR VALLABHBHAI"},{"latitude":22.7364956,"longitude":75.8828305,"precision":5,"amenity":"clinic","operator_type":"private","name":"Marmat'S Clinic","name_hindi":"मर्म का क्लिनिक","address":"Nehru Nagar","mobile":"7869597239","opening_hours":"Mo-Sa 13:00-14:00;18:00-20:00","operator":"Dr Narendra Mamrat","personnel_count":2,"facilities":"General_Physician","rate_list":"no","ward_no":"026","ward_name":"JEEN MATA"},{"latitude":22.73745509,"longitude":75.88478284,"precision":5,"amenity":"clinic","operator_type":"private","name":"Dr Hemant Chopra Clinic","name_hindi":"डॉ हेमंत चोपड़ा क्लिनिक","address":"Nehru Nagar","mobile":"9827031818","opening_hours":"Mo-fr 12:00-13:30;18:00-20:30","operator":"Dr Hemant Chopra","personnel_count":2,"facilities":"Gastroenteritis, ","rate_list":"no","ward_no":"044","ward_name":"H.I.G."},{"latitude":22.73183552082628,"longitude":75.87483312003314,"precision":5,"amenity":"clinic","operator_type":"private","name":"Dr B D Singhal","name_hindi":"डॉक्टर बी डी सिंघल","address":"19/1 Silver Estate Y N Road Opposite Malwa Mill Community Hall Indore","phone":"07312540433","opening_hours":"mo-sa 10:00-13:00 ; 18:00 - 21:00","operator":"Dr B D Singhal","personnel_count":1,"facilities":"General_Physician","rate_list":"no","ward_no":"047","ward_name":"SARDAR VALLABHBHAI"},{"latitude":22.73237456101924,"longitude":75.87500729598105,"precision":7,"amenity":"clinic","operator_type":"private","name":"Dr. Ravi Ranjan Tripathi","name_hindi":"डॉ रवि रंजन त्रिपाठी","address":"101-A, First Floor, Prakarti Corporate, A - Block, Y.N Road","mobile":"9425314455","opening_hours":"mo-sa 17:30- 20:30","operator":"Dr Ravi Ranjan Tripathi","personnel_count":1,"facilities":"Cardiologist, Pediatrician","rate_list":"no","ward_no":"047","ward_name":"SARDAR VALLABHBHAI"},{"latitude":22.72922915,"longitude":75.89269708,"precision":4.5509996,"amenity":"clinic","operator_type":"private","name":"Dr. Kasmeer Kaur Chhabra","name_hindi":"डॉ जसमीत कौर छाबरा","address":"194-195 Shrinagar Colony Main,Near Anand Bazar,Indore","phone":"9893601711","opening_hours":"Mo-Sa 10:00-13:00;15:00-20:00","operator":"Jasmeet Kaur Chhabra","personnel_count":1,"facilities":"Homeopathy","rate_list":"no","ward_no":"043","ward_name":"SHRINAGAR"},{"latitude":22.73292772471905,"longitude":75.8761613164097,"precision":5,"amenity":"clinic","operator_type":"private","name":" Dr Pankaj Bhandari","name_hindi":"डॉक्टर पंकज भंडारी","address":"R S Bhandari Marg, Near Malwa Mill Indore","phone":"07312538252","mobile":"9826629200","opening_hours":"mo-sa 10:00-13:00; 18:00-21:00","operator":"Dr Pankaj Bhandari","personnel_count":1,"facilities":"Pediatrician","rate_list":"no","ward_no":"047","ward_name":"SARDAR VALLABHBHAI"},{"latitude":22.73589196,"longitude":75.88378042,"precision":5,"amenity":"clinic","operator_type":"private","name":"Dr Vinayak Thakare Clinic","name_hindi":"डॉ विनायक ठाकरे क्लिनिक","address":"Nehru Nagar","website":"9926066701","operator":"Dr Vinayak Thakare","personnel_count":2,"facilities":"Dentist","rate_list":"no","ward_no":"026","ward_name":"JEEN MATA"},{"latitude":22.73326777853072,"longitude":75.87572537362576,"precision":5,"amenity":"clinic","operator_type":"private","name":"Dr Vijay Khetan","name_hindi":"डॉ विजय खेतान","address":"Chanakya Complex, Y.N Road Indore","mobile":"9827716161","opening_hours":"mo-sa 18:00-20:30","operator":"Dr Vijay Khetan","personnel_count":1,"facilities":"Dermatologist","rate_list":"no","ward_no":"047","ward_name":"SARDAR VALLABHBHAI"},{"latitude":22.73578143,"longitude":75.88376255,"precision":5,"amenity":"clinic","operator_type":"private","name":"Dr J K Lala Clinic","name_hindi":"डॉ जे के लाला क्लिनिक","address":"Nehru Nagar","opening_hours":"Mo-Sa 10:30-14:00;18:30-21:30; Sa 11:00-13:00","operator":"Dr J K Lala","personnel_count":1,"facilities":"General_Physician","rate_list":"no","ward_no":"026","ward_name":"JEEN MATA"},{"latitude":22.73328395560384,"longitude":75.87579100392759,"precision":6,"amenity":"clinic","operator_type":"private","name":"Dr Neel Saxena","name_hindi":" डॉक्टर नील सक्सेना","address":"115, Chanakya Apartment, Rs Bhandari Marg, Malwa Mill Square, Malwa Mill, Indore","phone":"07312430744","mobile":"9827027200","opening_hours":"mo-sa 10:00 - 17:00","operator":"Dr Mrs Neel Saxena","personnel_count":1,"facilities":"Pediatrician","rate_list":"no","ward_no":"047","ward_name":"SARDAR VALLABHBHAI"},{"latitude":22.7355722,"longitude":75.88721094,"precision":4,"amenity":"clinic","operator_type":"private","name":"Dr Urmila Tiwari Clinic","name_hindi":"डॉ। उर्मिला तिवारी क्लिनिक","address":"Nehru Nagar","mobile":"9827032295","opening_hours":"Mo-Sa 13:00-15:00;18:00-20:30","operator":"Dr Urmila Tiwari","personnel_count":2,"facilities":"Gynecologist, Urologist","rate_list":"no","ward_no":"045","ward_name":"DR. BHIMRAO AMBEDAR"},{"latitude":22.73485606,"longitude":75.88815218,"precision":5,"amenity":"clinic","operator_type":"private","name":"United Health Clinic","name_hindi":"संयुक्त स्वास्थ्य क्लिनिक","address":"Agarwal Plaza Nehru Nagar Main Road","mobile":"8819999634","opening_hours":"Mo-Fr 17:00-19:00","operator":"Dr Pranav Mahajan, Dr Ritu Haripriya","personnel_count":3,"facilities":"Physiologist","rate_list":"no","ward_no":"045","ward_name":"DR. BHIMRAO AMBEDAR"},{"latitude":22.73466144,"longitude":75.88845423,"precision":4,"amenity":"clinic","operator_type":"private","name":"Mahajan Memorial","name_hindi":"महाजन स्मारक","address":"Nehru Nagar","opening_hours":"Mo-fr 17:00-20:00","operator":"Dr Alka Gupta, Dr Sanjay Gupta","personnel_count":3,"facilities":"Dentist, Ent","rate_list":"no","ward_no":"045","ward_name":"DR. BHIMRAO AMBEDAR"},{"latitude":22.73376811,"longitude":75.88980826,"precision":5,"amenity":"clinic","operator_type":"private","name":"Sports Injury Centre","name_hindi":"खेल चोट केंद्र","address":"Nehru Nagar Main Road","operator":"Dr Abhishek Kalantri, Dr Pallavi Kalantri","personnel_count":3,"facilities":"General_Physician","rate_list":"no","ward_no":"045","ward_name":"DR. BHIMRAO AMBEDAR"},{"latitude":22.73698004,"longitude":75.89083081,"precision":5,"amenity":"clinic","operator_type":"private","name":"Doctor Gajendra Jain Clinic","name_hindi":"डॉक्टर गजेंद्र जैन क्लिनिक","address":" Shopping Complex A B Road","opening_hours":"Mo-fr 10:00-12:30;18:00-20:30","operator":"Dr Gajendra Jain","personnel_count":2,"facilities":"General_Physician","rate_list":"no","ward_no":"044","ward_name":"H.I.G."},{"latitude":22.73568932,"longitude":75.88818346,"precision":10,"amenity":"clinic","operator_type":"private","name":"Women Care Clinic","name_hindi":"महिलाएं क्लिनिक की देखभाल करती हैं","address":"F 48 Mig","opening_hours":"Mo-fr 17:30-19:00","operator":"Dr Nilesh Dalal, Dr Neelam Dalal","personnel_count":3,"facilities":"Gynecologist, Urologist","rate_list":"no","ward_no":"045","ward_name":"DR. BHIMRAO AMBEDAR"},{"latitude":22.74643221,"longitude":75.88003201,"precision":4.5509996,"amenity":"clinic","operator_type":"private","name":"Vedant Homeopathic Clinic","name_hindi":"वेदान्त होम्योपैथिक क्लिनिक","address":"1247/11,Nanda Nagar, Indore","mobile":"9907545798","opening_hours":"Mo-Sa 11:00-14:00; 18:00-21:00","operator":"A K Tiwari","personnel_count":2,"facilities":"Dermatologist,  ","rate_list":"no","ward_no":"027","ward_name":"PASHUPATI NATH"},{"latitude":22.74644124,"longitude":75.88001618,"precision":4.5509996,"amenity":"clinic","operator_type":"private","name":"R D Clinic","name_hindi":"आर. डी. क्लिनिक","address":"1248/11, Nanda Nagar, Indore","mobile":"9109675490","opening_hours":"Mo-Su 18:00-21:00","operator":"Mohini Rajoria","personnel_count":2,"facilities":"Gynecologist, Obstetrician","rate_list":"no","ward_no":"027","ward_name":"PASHUPATI NATH"},{"latitude":22.74963918,"longitude":75.87426216,"precision":4.5509996,"amenity":"clinic","operator_type":"private","name":"Dr. Nilesh Homeoclinic","name_hindi":"डाँ. नीलेश होमेओक्लीनिक","address":"328,Clerk Colony ,I.T.I Square,Indore","mobile":"9009572243","opening_hours":"Mo-Su 19:00-21:00","operator":"Nilesh Binjana","personnel_count":2,"facilities":"Homoeopathy","rate_list":"no","ward_no":"023","ward_name":"SWARGIYA RAJESH JOSHI"},{"latitude":22.74752762,"longitude":75.87812403,"precision":4.5509996,"amenity":"clinic","operator_type":"private","name":"Arvind Homeopathic Clinic","name_hindi":"अरविंद होम्योपैथिक क्लिनिक","address":"1381/11,Nanda Nagar,Indore","mobile":"9993195721","opening_hours":"Mo-Sa 10:00-14:00;17:00:-21:00","operator":"D N Gupta","personnel_count":2,"facilities":"Homeopathy","rate_list":"no","ward_no":"027","ward_name":"PASHUPATI NATH"},{"latitude":22.7480807,"longitude":75.87710801,"precision":4.5509996,"amenity":"clinic","operator_type":"private","name":"Dr. Yasha Jain","name_hindi":"डाँ. यशा जैन","address":"58/11,Nanda Nagar,Indore","mobile":"9926653315","opening_hours":"Mo-Su 18:00-20:00","operator":"Yasha Jain","personnel_count":2,"facilities":"General_Physician","rate_list":"no","ward_no":"025","ward_name":"NANDA NAGAR"},{"latitude":22.74582842,"longitude":75.87565641,"precision":4.5509996,"amenity":"clinic","operator_type":"private","name":"Arogya Homeopathic Clinic","name_hindi":"आरोग्य होम्योपैथिक क्लिनिक","address":"548/7-A,Nanda Nagar,Indore","mobile":"9039243489","opening_hours":"Mo-Sa 18:00-21:00","operator":"Jyoti Dubey","personnel_count":2,"facilities":"Homeopathy","rate_list":"no","ward_no":"025","ward_name":"NANDA NAGAR"},{"latitude":22.74523269,"longitude":75.87520986,"precision":4.5509996,"amenity":"clinic","operator_type":"private","name":"Shahpurkar Clinic","name_hindi":"शाहपुरकर क्लिनिक","address":"1435/24,Nanda Nagar,Indore","mobile":"9926786072","opening_hours":"Mo-Sa 09:00 -12:00;17:00-21:00;Su 09:00-12:00","operator":"S L Shahpurkar, T S Shahpurkar, M S Shahpurkar, ","personnel_count":3,"facilities":"General_Physician","rate_list":"no","ward_no":"025","ward_name":"NANDA NAGAR"},{"latitude":22.74241826,"longitude":75.8762029,"precision":4.5509996,"amenity":"clinic","operator_type":"private","name":"Dr. Shailendra Jain","name_hindi":"डाँ. शैलेन्द्र जैन","address":"Nanda Nagar Main Road,Opp. Syndicate Bank,Indore","mobile":"9826969099","opening_hours":"Mo-Su 18:30-20:30","operator":"Shailendra Jain","personnel_count":2,"facilities":"Pulmonology","rate_list":"no","ward_no":"025","ward_name":"NANDA NAGAR"},{"latitude":22.74273112,"longitude":75.87567413,"precision":4.5509996,"amenity":"clinic","operator_type":"private","name":"Chopra Clinic","name_hindi":"चोपड़ा क्लिनिक","address":"S.S. 71,Nanda Nagar Main Road,Indore","mobile":"9425054926","opening_hours":"Mo-Su 10:00-14:00;18:00-22:00","operator":"P S Chopra","personnel_count":1,"facilities":"General_Physician","rate_list":"no","ward_no":"025","ward_name":"NANDA NAGAR"},{"latitude":22.74309898,"longitude":75.87519406,"precision":4.5509996,"amenity":"clinic","operator_type":"private","name":"P.C Child Care Clinic","name_hindi":"पी.सी.चाइल्ड केअर क्लिनिक","address":"Nanda Nagar Main Road,Indore","opening_hours":"Mo-Su 10:30-13:30;18:30-21:30","operator":"Narendra Kumar Sijorya","personnel_count":3,"facilities":"Pediatrician","rate_list":"no","ward_no":"024","ward_name":"SANT BALAJI ATH MAHARAJ"},{"latitude":22.74385148,"longitude":75.87384801,"precision":4.5509996,"amenity":"clinic","operator_type":"private","name":"Dr. Surendra Jain","name_hindi":"डाँ.सुरेंद्र जैन","address":"1/1,Teen Pulia Square,Nanda Nagar Main Road,Indore","mobile":"9893482757","opening_hours":"Mo-Sa 11:00-16:00","operator":"Surendra Jain","personnel_count":2,"facilities":"General_Physician","rate_list":"no","ward_no":"024","ward_name":"SANT BALAJI ATH MAHARAJ"},{"latitude":22.74413925,"longitude":75.87348011,"precision":4.5509996,"amenity":"clinic","operator_type":"private","name":"Dr. Rahul Talati","name_hindi":"डाँ.राहुल तलाटी","address":"4-C,Subhash  Nagar,Indore","mobile":"9827034521","opening_hours":"Mo-Su 18:00-21:30","operator":"Rahul Talati","personnel_count":2,"facilities":"Endocrinologist","rate_list":"no","ward_no":"024","ward_name":"SANT BALAJI ATH MAHARAJ"},{"latitude":22.7441737,"longitude":75.87336269,"precision":4.5509996,"amenity":"clinic","operator_type":"private","name":"Dr. Dinesh Chaurasiya","name_hindi":"डाँ.दिनेश चौरसिया","address":"6-C,Subhash Nagar,Indore","mobile":"9329752732","opening_hours":"Mo-Sa 12:00-15:00;20:00-22:30","operator":"Dinesh Chaurasiya","personnel_count":2,"facilities":"General_Physician","rate_list":"no","ward_no":"024","ward_name":"SANT BALAJI ATH MAHARAJ"},{"latitude":22.74397327,"longitude":75.87256552,"precision":4.5509996,"amenity":"clinic","operator_type":"private","name":"Dr. Nitin Jamdagni","name_hindi":"डाँ.नितिन जमदग्नि","address":"12-B ,Subhash Nagar,Indore","mobile":"9425057796","opening_hours":"Mo-Sa 11:00-13:00;19:30-21:00","operator":"Nitin Jamdagni","personnel_count":2,"facilities":"General_Physician","rate_list":"no","ward_no":"024","ward_name":"SANT BALAJI ATH MAHARAJ"},{"latitude":22.74380927,"longitude":75.87104493,"precision":4.5509996,"amenity":"clinic","operator_type":"private","name":"Dr. Sunita Chauhan","name_hindi":"डाँ.सुनीता चौहान","address":"12/1,Pardesipura,Indore","phone":"07312434244","opening_hours":"Mo-Sa 12:30-15:30","operator":"Sunita Chauhan","personnel_count":2,"facilities":"Gynecologist","rate_list":"no","ward_no":"023","ward_name":"SWARGIYA RAJESH JOSHI"},{"latitude":22.74823861,"longitude":75.87019922,"precision":4.5509996,"amenity":"clinic","operator_type":"private","name":"Dr. K.M Sharma","name_hindi":"डाँ. के.एम. शर्मा","address":"425,Pardesipura,Indore","mobile":"9826255044","opening_hours":"Mo-Su 09:00-13:00;18:00-21:00","operator":"K S Sharma","personnel_count":2,"facilities":"General_Physician","rate_list":"no","ward_no":"023","ward_name":"SWARGIYA RAJESH JOSHI"},{"latitude":22.74249571,"longitude":75.88343657,"precision":3.216,"amenity":"clinic","operator_type":"private","name":"Ashirwad Clinic","name_hindi":"आशी्वाद कलिनिक","address":"Near Nanda Nagar","phone":"07312555155","mobile":"9425063417","opening_hours":"Mo-Sa 09:30-13:00;18:00-21:00","operator":"Dr Vinay Sujalpurkar","personnel_count":2,"facilities":"General_Physician","rate_list":"no","ward_no":"028","ward_name":"MA TULJA BHAVANI"},{"latitude":22.74249083,"longitude":75.88308985,"precision":3.216,"amenity":"clinic","operator_type":"private","name":"Dr Cs Choudhary","address":"91/9 Nanda Nagar","mobile":"9229595533","opening_hours":"Mo-Sa 09:00-13:00;18:00-21:00","operator":"Dr Cs Choudhary, Dr Jitendra Choudhary","personnel_count":3,"facilities":"General_Physician","rate_list":"no","ward_no":"027","ward_name":"PASHUPATI NATH"},{"latitude":22.73920356,"longitude":75.8822598,"precision":3.216,"amenity":"clinic","operator_type":"private","name":"Dr Rajesh Shah","name_hindi":"डॉ राजेश शाह","address":"11, Jagjivan Nagar Indore","phone":"07312551373","opening_hours":"Mo-Sa 19:30-21:00","operator":"Dr Rajesh Shah","personnel_count":2,"facilities":"Diabetes;, Blood, Pressure","rate_list":"no","ward_no":"044","ward_name":"H.I.G."},{"latitude":22.73870865,"longitude":75.8827489,"precision":3.216,"amenity":"clinic","operator_type":"private","name":"Toshi Polyclinic","address":"Patnipura Main Road Indore","mobile":"9009874060","opening_hours":"sunrise-sunset","operator":"Dr Sushmita Mukherjee, Dr Sachin Soni, Dr Rk Yogi, Dr Hasmukh Gandhi","personnel_count":6,"facilities":"Cardiologist, Gynecologist","rate_list":"no","ward_no":"044","ward_name":"H.I.G."},{"latitude":22.73169,"longitude":75.87497333333334,"precision":5,"amenity":"clinic","operator_type":"private","name":"Dr Sanjay Hawaldar","name_hindi":"ङा संजय हवलदार","address":"19/1 Silver Estate Apartment Yashwant Niwas Road Indore","phone":"07314086626","mobile":"9302101867","opening_hours":"Mo-Sa 18:00-21:00","operator":"Dr Sanjay Havaldar","personnel_count":1,"facilities":"Ophthalmologist","rate_list":"no","ward_no":"047","ward_name":"SARDAR VALLABHBHAI"},{"latitude":22.73304,"longitude":75.87612333333333,"precision":4.1,"amenity":"clinic","operator_type":"private","name":"Dr Vimal Kumar Bhandari","name_hindi":"ङा विमल कुमार भण्ङारी","address":"Rs Bhandari Marg Near Malwa Mill Square","phone":"07312538463","mobile":"9826629200","opening_hours":"Mo-Sa10:00-13:00; 18:00-21:00","operator":"Dr Vimal Kumar Bhandari","personnel_count":5,"facilities":"Pediatrician","rate_list":"no","ward_no":"047","ward_name":"SARDAR VALLABHBHAI"},{"latitude":22.73331666666666,"longitude":75.87582666666667,"precision":4.7,"amenity":"clinic","operator_type":"private","name":"Dr Ritu Maheshwari","name_hindi":"ङा रितु माहेशवरी","address":"70 Chanakya Complex Near Malwamill Square Indore","mobile":"9827277202","opening_hours":"Mo-Sa11:00 - 14:00","operator":"Dr Ritu Maheshwari","personnel_count":2,"facilities":"Gynecologist","rate_list":"no","ward_no":"047","ward_name":"SARDAR VALLABHBHAI"},{"latitude":22.73310833333333,"longitude":75.87581,"precision":4.9,"amenity":"clinic","operator_type":"private","name":"Dr S K Jain","name_hindi":"ङा एस के जैन","address":"71 Chanakya Complex, Y.N Road, Near Malwa Mill, Indore","mobile":"9179376446","opening_hours":"mo-sa 10:00-15:00;18:00-21:00","operator":"Dr S K Jain","personnel_count":1,"facilities":"General_Physician","rate_list":"no","ward_no":"047","ward_name":"SARDAR VALLABHBHAI"},{"latitude":22.7375888,"longitude":75.88537946,"precision":3.216,"amenity":"clinic","operator_type":"private","name":"Akshat Clinic","name_hindi":"अक्षत क्लिनिक","mobile":"9893715651","opening_hours":"18:00-20:30","operator":"Dr A Kansal","personnel_count":2,"facilities":"General_Physician","rate_list":"no","ward_no":"044","ward_name":"H.I.G."},{"latitude":22.73835285,"longitude":75.88605138,"precision":3.216,"amenity":"clinic","operator_type":"private","name":"Dr Nilesh Jain","mobile":"9826284937","operator":"Dr Nilesh Jain","personnel_count":1,"facilities":"Gynecologist","rate_list":"no","ward_no":"044","ward_name":"H.I.G."},{"latitude":22.73885715,"longitude":75.88635661,"precision":9.648001,"amenity":"clinic","operator_type":"private","name":"Shrinath Clinic","address":"Mig Colony Indore","mobile":"9425073028","operator":"Dr Peenak Bhatnagar","personnel_count":5,"facilities":"Obstetrician","rate_list":"no","ward_no":"044","ward_name":"H.I.G."},{"latitude":22.72862333333333,"longitude":75.87968166666666,"precision":3,"amenity":"clinic","operator_type":"private","name":"New Sanjeevani Clinic6","name_hindi":"न्यू संजीवनी क्लिनिक","address":"7, 3/2 Shreyas Nath Apartment Bhandari Marg Near Janjeerwala Squaret","phone":"07314995565","mobile":"9111455565","opening_hours":"Mo-Sa12:30-15:00","operator":"Dr Nilesh K Dehariya, Dr Rashmi Dehariya","personnel_count":2,"facilities":"General_Physician","rate_list":"no","ward_no":"047","ward_name":"SARDAR VALLABHBHAI"},{"latitude":22.728235,"longitude":75.879875,"precision":2.9,"amenity":"clinic","operator_type":"private","name":"Rejuvenate Hair Transplant Centre","name_hindi":"रेजुनेट हेयर टर्आन्सप्लान्ट","address":"2/1 R.S. Bhandari Marg Near Janjeerwala Square Before Shalby Hospital","mobile":"9144444433","website":"www.rejuvenatehairtransplant.com","email":"anil@anilgrag.com","opening_hours":"Mo-Sa 9:00-20:00","operator":"Dr Anil Garg, Dr Seema Garg","personnel_count":10,"facilities":"Plastic_Surgeon,  ","rate_list":"no","ward_no":"047","ward_name":"SARDAR VALLABHBHAI"},{"latitude":22.73581228,"longitude":75.88711703,"precision":3.216,"amenity":"clinic","operator_type":"private","name":"Dr Ashish Mishra","name_hindi":"डॉ आशीष मिश्रा","address":"Mig Colony Indore","mobile":"7354147112","opening_hours":"12:00-13:00;18:00-20:00","operator":"Dr Ashish Mishra, Dr P Mishra","personnel_count":2,"facilities":"Cardiologist, Obstetrician","rate_list":"no","ward_no":"045","ward_name":"DR. BHIMRAO AMBEDAR"},{"latitude":22.73481757,"longitude":75.88861053,"precision":3.216,"amenity":"clinic","operator_type":"private","name":"Dr Pinak Bhatnagar","address":"Mig Colony Indore","mobile":"9425073027","opening_hours":"09:00-11:30;17:30-19:30","operator":"Dr Pinak Bhatnagar","personnel_count":2,"facilities":"Ent","rate_list":"no","ward_no":"045","ward_name":"DR. BHIMRAO AMBEDAR"},{"latitude":22.7343505,"longitude":75.88927852,"precision":3.216,"amenity":"clinic","operator_type":"private","name":"Bhatia Clinic","name_hindi":"भाटिया क्लिनिक","address":"Lig Colony Indore","phone":"07312575610","opening_hours":"11:00-14:00;18:00-20:00","operator":"Dr Ravi Bhatia, Dr Divya Bhatia","personnel_count":2,"facilities":"Cardiologist, Dentist","rate_list":"no","ward_no":"045","ward_name":"DR. BHIMRAO AMBEDAR"},{"latitude":22.73413393,"longitude":75.88963949,"precision":3.216,"amenity":"clinic","operator_type":"private","name":"Dr Sk Yadav","address":"Lig Square","mobile":"9893601628","opening_hours":"12:00-14:00;18:00-20:00","operator":"Dr Sk Yadav, Dr Sushmita Mukherjee","personnel_count":2,"facilities":"Obstetrician,  ","rate_list":"no","ward_no":"045","ward_name":"DR. BHIMRAO AMBEDAR"},{"latitude":22.73735567,"longitude":75.8908443,"precision":3.216,"amenity":"clinic","operator_type":"private","name":"Dr Vk Taneja","address":"Shopping Complex A B Road Indore","opening_hours":"Mo-Sa 11:00-15:00;18:00-21:30","operator":"Dr Vk Tanuja, Dr Shrimati Renu Taneja","personnel_count":2,"facilities":"General_Physician","rate_list":"no","ward_no":"044","ward_name":"H.I.G."},{"latitude":22.73567998,"longitude":75.88816271,"precision":3.216,"amenity":"clinic","operator_type":"private","name":"Dr Anita Choksey","name_hindi":"डॉ अनीता चोकसे","address":"11Hig Colony Indore","mobile":"9826050412","operator":"Dr Anita Choksey","personnel_count":1,"facilities":"Kidney, And, Transplant, Physician","rate_list":"no","ward_no":"045","ward_name":"DR. BHIMRAO AMBEDAR"},{"latitude":22.74547683,"longitude":75.87090269,"precision":4.5509996,"amenity":"clinic","operator_type":"private","name":"Dr.Vijay Lakshmi Solanki","name_hindi":"डाँ.विजय लक्ष्मी सोलंकी","address":"9/7,Pardesipura,Indore","opening_hours":"Mo-Su 12:00-15:00;20:00-22:00","operator":"Vijay Lakshmi Solanki","personnel_count":2,"facilities":"Gynecologist","rate_list":"no","ward_no":"023","ward_name":"SWARGIYA RAJESH JOSHI"},{"latitude":22.74554499,"longitude":75.87083504,"precision":4.5509996,"amenity":"clinic","operator_type":"private","name":"Dr. Manish Purohit","name_hindi":"डाँ.मनीष पुरोहित","address":"9/7,Pardesipura,Indore","mobile":"8109671170","opening_hours":"Mo-Sa 17:00-20:00","operator":"Manish Purohit","personnel_count":2,"facilities":"General_Physician","rate_list":"no","ward_no":"023","ward_name":"SWARGIYA RAJESH JOSHI"},{"latitude":22.74166221,"longitude":75.87115478,"precision":4.5509996,"amenity":"clinic","operator_type":"private","name":"Dr. S.K Nagar","name_hindi":"डाँ. एस. के.नागर","address":"164,Subhash Nagar,Indore","mobile":"9893124563","opening_hours":"Mo-Su 10:30-14:30;18:30-21:30","operator":"S K Nagar","personnel_count":2,"facilities":"General_Physician","rate_list":"no","ward_no":"024","ward_name":"SANT BALAJI ATH MAHARAJ"},{"latitude":22.74152854,"longitude":75.8711136,"precision":4.5509996,"amenity":"clinic","operator_type":"private","name":"Dr. Sandeep Kumar Jain","name_hindi":"डाँ. संदीप कुमार जैन","address":"55,Subhash Nagar,Indore","mobile":"9826067727","opening_hours":"Mo-Su 19:00-21:00","operator":"Sandeep Kumar Jain","personnel_count":2,"facilities":"General_Physician","rate_list":"no","ward_no":"024","ward_name":"SANT BALAJI ATH MAHARAJ"},{"latitude":22.74156314,"longitude":75.87116015,"precision":4.5509996,"amenity":"clinic","operator_type":"private","name":"Dr . Anjali Masand","name_hindi":"डाँ..अंजलि मासंद","address":"55,Subhash Nagar,Indore","mobile":"9826081474","opening_hours":"Mo-Sa 12:30 -13:30","operator":"Anjali Masand","personnel_count":2,"facilities":"Gynecologist","rate_list":"no","ward_no":"024","ward_name":"SANT BALAJI ATH MAHARAJ"},{"latitude":22.73649261,"longitude":75.87203551,"precision":4.5509996,"amenity":"clinic","operator_type":"private","name":"Shivaji Clinic","name_hindi":"शिवजी क्लिनिक","address":"Shivaji Nagar Main Road,Indore","mobile":"8519064211","opening_hours":"Mo-Sa 15:00-17:00;20:00-22:00;Su 10:00-14:00","operator":"Sharad Khandelwal","personnel_count":2,"facilities":"General_Physician","rate_list":"no","ward_no":"056","ward_name":"SNEHALATA GANJ"},{"latitude":22.7277252,"longitude":75.89463584,"precision":4.5509996,"amenity":"clinic","operator_type":"private","name":"Dr. Trivedi Clinic","name_hindi":"डॉ त्रिवेदी क्लिनिक","address":"Flat No. 102,Regal Towar,Baikunth Dham Colony,Indore","phone":"07314050443","mobile":"9893345227","website":"www.yashfertility.in","email":"help@yashfertility.in","opening_hours":"Mo-Sa 10:00-14:00;18:00-20:00","operator":"Manish Trivedi, Ekta Trivedi","personnel_count":6,"facilities":"Gynecologist, Obstetrician","rate_list":"no","ward_no":"043","ward_name":"SHRINAGAR"},{"latitude":22.72853206,"longitude":75.89554993,"precision":4.5509996,"amenity":"clinic","operator_type":"private","name":"Dental Clinic","name_hindi":"डेंटल क्लिनिक","address":"17 & 18, Khajrana Road, Baikunth Dham Colony, Near Central Bank Of India, Indore,","phone":"07312561334","opening_hours":"Mo-Sa 10:00-15:00;18:30-20:30","operator":"Arveen Gola, Priyanka Gola","personnel_count":3,"facilities":"Dentist,  ","rate_list":"no","ward_no":"042","ward_name":"SWAMI VIVEKANAND"},{"latitude":22.7288466,"longitude":75.8958854,"precision":4.5509996,"amenity":"clinic","operator_type":"private","name":"Aditya Allergy Centre","name_hindi":"आदित्य एलर्जी सेन्टर","address":"203 B,Anmol Space,20,Baikunth Dham Colony,Indore","mobile":"9826357660","opening_hours":"Mo 11:00-17:00;We-Th 11:00-17:00;Sa 11:00-17:00","operator":"Rk Shrivastav","personnel_count":2,"facilities":"Naet, Specialist","rate_list":"no","ward_no":"042","ward_name":"SWAMI VIVEKANAND"},{"latitude":22.73062406,"longitude":75.88846121,"precision":4.5509996,"amenity":"clinic","operator_type":"private","name":"My Dentist","name_hindi":"मइ डेंटिस्ट","address":"A2 Lig Colony,Ab Road Indore","phone":"07312532164","opening_hours":"Mo-Sa 10:00-15:00;17:00-21:00","operator":"Vp Pandey, Akshat Pandey, Mimansha Pandey, ","personnel_count":4,"facilities":"Dentist, Immunologist, Rheumatologist","rate_list":"no","ward_no":"045","ward_name":"DR. BHIMRAO AMBEDAR"},{"latitude":22.73327757,"longitude":75.88775468,"precision":4.5509996,"amenity":"clinic","operator_type":"private","name":"Vinit Gupta","name_hindi":"विनीत गुप्ता","address":"B70 Mig Colony,Indore","phone":"07312538538","opening_hours":"Mo-Sa 12:00-13:00;18:00-20:00","operator":"Vinit Gupta","personnel_count":1,"facilities":"Otolaryngologist","rate_list":"no","ward_no":"045","ward_name":"DR. BHIMRAO AMBEDAR"},{"latitude":22.73376413,"longitude":75.88759611,"precision":4.5509996,"amenity":"clinic","operator_type":"private","name":"Dr. Anjali Masand","name_hindi":"डॉ अंजलि मसंद","address":"A/3,Sanjay Upwan,Mig Colony,Indore","mobile":"9826081474","opening_hours":"Mo-Sa 18:00-20:00","operator":"Anjali Masand","personnel_count":2,"facilities":"Gynecologist, Obstetrician","rate_list":"no","ward_no":"045","ward_name":"DR. BHIMRAO AMBEDAR"},{"latitude":22.72838158998638,"longitude":75.87464410811663,"precision":5,"amenity":"clinic","operator_type":"private","name":"Dr Meet'S Clinic ","name_hindi":"डॉक्टर मीट्स क्लिनिक","address":"G-2, Prakash Tower, 23/1 Y.N Road, Opp. Rani Sati Gate","phone":"07314284111","mobile":"9993871118","opening_hours":"mo-su 10:30 - 19:30","operator":"Dr Meet Trivedi","personnel_count":5,"facilities":"Cosmetology","rate_list":"no","ward_no":"047","ward_name":"SARDAR VALLABHBHAI"},{"latitude":22.72792360279709,"longitude":75.88033969514072,"precision":5,"amenity":"clinic","operator_type":"private","name":"Dr Ashok Agarwal","name_hindi":" डॉ अशोक अग्रवाल","address":"33, Dr R S Bhandari Marg Indore","mobile":"9425964288","opening_hours":"mo-su 10:30-12:30; 18:00-20:30","operator":"Dr Ashok Agrawal","personnel_count":1,"facilities":"General_Physician","rate_list":"no","ward_no":"046","ward_name":"SOMNATH"},{"latitude":22.72976519074291,"longitude":75.87752806954086,"precision":4,"amenity":"clinic","operator_type":"private","name":"Mp Fertility Centre","name_hindi":"एमपी फर्टिलिटी सेंटर","address":"16/5, Race Course Road, Opp. Nagar Nigam Zonal Office Near Zaanjeer Wala Chouraha, Indore","mobile":"9755088844","opening_hours":"mo-sa 10:00-17:00","operator":"Dr Pratibha Doshi, Dr Malika Doshi","personnel_count":10,"facilities":"Gynecologist","rate_list":"no","ward_no":"047","ward_name":"SARDAR VALLABHBHAI"},{"latitude":22.73055572994053,"longitude":75.87448066100478,"precision":5,"amenity":"clinic","operator_type":"private","name":"Dr Anil Agarwal","name_hindi":" डॉ अनिल अग्रवाल","phone":"07312435912","mobile":"9826032828","opening_hours":"mo-sa 13:00- 15:00; 18:00-20:00","operator":"Dr Anil Agrawal","personnel_count":2,"facilities":"Orthopaedist, ","rate_list":"no","ward_no":"047","ward_name":"SARDAR VALLABHBHAI"},{"latitude":22.73095261305571,"longitude":75.87494124658406,"precision":5,"amenity":"clinic","operator_type":"private","name":"Amol Liver And Gastro Hospital","name_hindi":"अमोल लिवर एंड गैस्ट्रो हॉस्पिटल","address":"20/1 Y.N Road, Shivaji Nagar, Indore","phone":"07312433334","opening_hours":"mo-su 06:00-22:00","operator":"Dr Sunil Jain","personnel_count":5,"facilities":"Gaestrologist, ","rate_list":"no","ward_no":"047","ward_name":"SARDAR VALLABHBHAI"},{"latitude":22.73206568788737,"longitude":75.87996292859316,"precision":8,"amenity":"clinic","operator_type":"private","name":"Sai Clinic","name_hindi":" साईं क्लीनिक","address":"Gotu Maharaj Ki Chaal, Amar Tekari,Indore","mobile":"9754215979","opening_hours":"mo-sa 17:00-21:00","operator":"Dr Abhishek Gupta","personnel_count":1,"facilities":"General_Physician","rate_list":"no","ward_no":"046","ward_name":"SOMNATH"},{"latitude":22.736976435408,"longitude":75.87809820659459,"precision":8,"amenity":"clinic","operator_type":"private","name":"Dr Alka Mimroat","name_hindi":" डॉ अलका में मिमरोट","address":"Malwa Mill Main Road, Indore","mobile":"9644270625","opening_hours":"mo-fr 10:00-12:00; 16:00-20:00","operator":"Dr Alka Mimroat","personnel_count":1,"facilities":"Dermatologist","rate_list":"no","ward_no":"025","ward_name":"NANDA NAGAR"},{"latitude":22.73919428698719,"longitude":75.88055938482285,"precision":8,"amenity":"clinic","operator_type":"private","name":"Eye And Dental Clinic","address":"49/12, Patnipura Square, Indore","mobile":"9827222232","opening_hours":"Mo-Sa 10:00-14:00; 18:00-21:00","operator":"Dr S S Ubobeja Eye Specialist, Dr Arpit Chopra Dentist","personnel_count":2,"facilities":"Dentist, Ophthalmologist","rate_list":"no","ward_no":"026","ward_name":"JEEN MATA"},{"latitude":22.73500617,"longitude":75.88943665,"precision":7,"amenity":"clinic","operator_type":"private","name":"Dr Sanjay Jain Clinic","name_hindi":"डॉ संजय जैन क्लीनिक","address":"Vipindeep Apartment","mobile":"9826338886","opening_hours":"Mon-Sat 12:30-14:00","operator":"Dr Sanjay Jain","personnel_count":3,"facilities":"General_Physician","rate_list":"no","ward_no":"045","ward_name":"DR. BHIMRAO AMBEDAR"},{"latitude":22.73088632,"longitude":75.88839583,"precision":3,"amenity":"clinic","operator_type":"private","name":"Dr Anant K Jinsiwale","name_hindi":"डॉ अनंत के जिंसीवाले","address":"137 Phadnis Colony Ab Road","phone":"07312533388","mobile":"9165007134","opening_hours":"Mon-Sat 10:00-14:00","operator":"Dr Anant Kumar Jinsiwale","personnel_count":3,"facilities":"General_Physician","rate_list":"no","ward_no":"045","ward_name":"DR. BHIMRAO AMBEDAR"},{"latitude":22.7309614,"longitude":75.88823874,"precision":5,"amenity":"clinic","operator_type":"private","name":"Dr Atul Kathed","name_hindi":"डॉ अतुल काठेड","address":"Phadnis Colony","phone":"07312549500","opening_hours":"Mon-Sat 9:00-13:00","operator":"Dr Atul Kathed","personnel_count":5,"facilities":"General_Physician","rate_list":"no","ward_no":"045","ward_name":"DR. BHIMRAO AMBEDAR"},{"latitude":22.72756071,"longitude":75.88537851,"precision":5,"amenity":"clinic","operator_type":"private","name":"V-Care Gynocology Centre And Laser Clinic","name_hindi":"वी-केयर गायनोकोलोजी सेंटर एंड लेजर क्लीनिक","address":"Bhagdra Tower","phone":"07312540077","mobile":"8889197920","website":"www.vcarelaser.com","email":"vcarelaser@gmail.com","opening_hours":"Mon-Sat 9:00-13:00","operator":"Dr A K Pancholiya","personnel_count":8,"facilities":"Gynecologist","rate_list":"no","ward_no":"043","ward_name":"SHRINAGAR"},{"latitude":22.72752818,"longitude":75.88539143,"precision":6,"amenity":"clinic","operator_type":"private","name":"Eat Right Diet Clinic","name_hindi":"ईट राइट डायट क्लीनिक","address":"26/2 C,New Palasiya","mobile":"7737378177","website":"www.eatryt.com","email":"roomani.jain@gmail.com","opening_hours":"Mon-Sat 12:00-16:00","operator":"Dr Roomani Pataudi","personnel_count":5,"facilities":"Dietician\n","rate_list":"no","ward_no":"043","ward_name":"SHRINAGAR"},{"latitude":22.7271939,"longitude":75.88372386,"precision":10,"amenity":"clinic","operator_type":"private","name":"Vinayak Netralaya","name_hindi":"विनायक नेत्रालय","address":"G2 Lakshya Badhata Crest Tower, New Palasiya","phone":"07314077770","opening_hours":"Mon-Sat 10:00-20:00","operator":"Dr Vinayak","personnel_count":8,"facilities":"General_Physician","rate_list":"no","ward_no":"047","ward_name":"SARDAR VALLABHBHAI"},{"latitude":22.72716261,"longitude":75.88380544,"precision":4,"amenity":"clinic","operator_type":"private","name":"Dr Prerna Jain","name_hindi":"डॉ प्रेरणा जैन","address":"Badgara Tower, New Palasiya","mobile":"9993430909","opening_hours":"Mon-Sat 12:00-17:00","operator":"Dr Prerna Jain","personnel_count":3,"facilities":"Gynecologist, Obstetrician","rate_list":"no","ward_no":"047","ward_name":"SARDAR VALLABHBHAI"},{"latitude":22.72711655,"longitude":75.8836924,"precision":8,"amenity":"clinic","operator_type":"private","name":"Neuro Surgery Clinic","name_hindi":"न्यूरोसर्जरी क्लीनिक","address":"Badgara Crest, New Palasiya","mobile":"9425060165","opening_hours":"Mon-Sat eve 5pm to 7pm","operator":"Dr Rakesh Gupta","personnel_count":2,"facilities":"Neurologist","rate_list":"no","ward_no":"047","ward_name":"SARDAR VALLABHBHAI"},{"latitude":"22.737259N/A2","longitude":"75.9N/AN/A29178","precision":"4.55N/A9996","amenity":"clinic","operator_type":"private","name":"Dr M S Shekh","name_hindi":"डॉ एम एस शेख","address":"199,Swarn Bagh Colony, Indore","mobile":"93N/AN/A775388","opening_hours":"Mo-Sa N/A9:N/AN/A-13:N/AN/A","operator":"Dr M S Shekh","personnel_count":"N/A","facilities":"General_Physician","rate_list":"no"},{"latitude":22.72716539,"longitude":75.88367434,"precision":5,"amenity":"clinic","operator_type":"private","name":"Dr Rahul Neema","name_hindi":"डॉ राहुल नीमा","address":"Badgara Tower","mobile":"8962480389","opening_hours":"Mon-Sat 6pm to 8pm","operator":"Dr Rahul Neema","personnel_count":2,"facilities":"Ortho, Specialist","rate_list":"no","ward_no":"047","ward_name":"SARDAR VALLABHBHAI"},{"latitude":22.7409455,"longitude":75.90376042,"precision":4.5509996,"amenity":"clinic","operator_type":"private","name":"Dr Mahesh Ratnere","name_hindi":"डॉ महेश रतनेरे","address":"01, Sanwariya Nagar,Indore","mobile":"9826031600","opening_hours":"Mo-Sa 10:00-13:00 ; 17:00-22:00 ; Su 10:00-13:00","operator":"Dr Mahesh Ratnere, Dr Khushboo Ratnere","personnel_count":1,"facilities":"General_Physician","rate_list":"no","ward_no":"037","ward_name":"SAI KRUPA"},{"latitude":22.7271939,"longitude":75.88355395,"precision":10,"amenity":"clinic","operator_type":"private","name":"Yuva Cosmoderm Skin Clinic","name_hindi":"युवा कॉस्मॉडर्म स्किन क्लीनिक","address":"The Magnate Building, New Palasiya","phone":"07312547200","opening_hours":"Mon-Sat 11:00-16:00","operator":"Dr Dilip Hemnani","personnel_count":3,"facilities":"Dermatologist","rate_list":"no","ward_no":"043","ward_name":"SHRINAGAR"},{"latitude":22.72705473,"longitude":75.88346692,"precision":7,"amenity":"clinic","operator_type":"private","name":"Dr S S Verma Clinic","name_hindi":"डॉ एस एस वर्मा क्लीनिक","address":"Badgara Crest, New Palasiya","opening_hours":"Mon-Sat 11:00-16:00","operator":"Dr S S Verma, Dr Pranaya Singh","personnel_count":3,"facilities":"Eye, Specialist","rate_list":"no","ward_no":"047","ward_name":"SARDAR VALLABHBHAI"},{"latitude":22.7269305,"longitude":75.88298999,"precision":4,"amenity":"clinic","operator_type":"private","name":"Allskin Clinic","name_hindi":"ऑल स्किन क्लीनिक","address":"New Palasiya Road","phone":"07314984987","mobile":"9109914987","opening_hours":"Mon-Sat 10:00-13:00 and 16:00 19:00","operator":"Dr Shreya Dass Jain","personnel_count":5,"facilities":"Dermatologist","rate_list":"no","ward_no":"047","ward_name":"SARDAR VALLABHBHAI"},{"latitude":22.72680356,"longitude":75.88230532,"precision":7,"amenity":"clinic","operator_type":"private","name":"Dr Rajesh A Kukreja","name_hindi":"डॉ राजेश ए कुकरेजा","address":"New Palasiya","phone":"07312540706","opening_hours":"Mon-Sat 11am to 4pm","operator":"Dr Rajesh A Kukreja","personnel_count":5,"facilities":"Urologist","rate_list":"no","ward_no":"047","ward_name":"SARDAR VALLABHBHAI"},{"latitude":22.72682711,"longitude":75.881834,"precision":6,"amenity":"clinic","operator_type":"private","name":"Dr Pali Rastogi","name_hindi":"डॉ पाली रस्तोगी","address":"Krishna Tower Janjeerwala Sq","mobile":"9893012199","opening_hours":"Mon-Sat 17:00-20:00","operator":"Dr Pali Rastogi","personnel_count":2,"facilities":"Neuropsychiatry","rate_list":"no","ward_no":"043","ward_name":"SHRINAGAR"},{"latitude":22.728225,"longitude":75.87829166666667,"precision":1.8,"amenity":"clinic","operator_type":"private","name":"Dr Sangeeta Maloo","address":"27/1 Racecourse Road, Indore","mobile":"9827018314","opening_hours":"mo-sa 18:00-20:00","operator":"Dr Sangeeta Maloo","personnel_count":1,"facilities":"General_Physician","rate_list":"no","ward_no":"047","ward_name":"SARDAR VALLABHBHAI"},{"latitude":22.72961666666667,"longitude":75.87650000000001,"precision":3.5,"amenity":"clinic","operator_type":"private","name":"Choithram City Clinic","name_hindi":"चोइथराम सिटी क्लीनिक","address":"19/1 Ronak Villa Race Course Road Indore","phone":"07312432535","website":"www.choithram.org","email":"medicine@choithram.org","opening_hours":"Mo-Sa 11:00-19:00","operator":"Dr Pravesh Kanthed, Dr Gaurav Gupta, Dr Mayank Jain, Dr Piyush Joshi","personnel_count":6,"facilities":"General_Physician","rate_list":"no","ward_no":"047","ward_name":"SARDAR VALLABHBHAI"},{"latitude":22.73093666666667,"longitude":75.87461833333333,"precision":1,"amenity":"clinic","operator_type":"private","name":"Dr Vijay Muchhal","name_hindi":"ङा विजय मुच्छाल","address":"G-2 ,Panchvati Apartment, 9/2 Yashwant Niwas Road Indore","phone":"07312540272","opening_hours":"Mo-Sa 9:00-11:00 ; 18:00-20:30","operator":"Dr Vijay Muchhal","personnel_count":2,"facilities":"General_Physician","rate_list":"no","ward_no":"047","ward_name":"SARDAR VALLABHBHAI"},{"latitude":22.73918666666667,"longitude":75.88054333333334,"precision":1.6,"amenity":"clinic","operator_type":"private","name":"Dr Mahesh Shah","name_hindi":"ङा महेश शाह","address":"Patnipura Square Indore","phone":"07312434545","mobile":"9827302457","opening_hours":"Mo-Sa 11:00-14:30 ; 18:30-22:30","operator":"Dr Mahesh Shah","personnel_count":2,"facilities":"General_Physician","rate_list":"no","ward_no":"026","ward_name":"JEEN MATA"},{"latitude":22.7423945,"longitude":75.89500594,"precision":4.288,"amenity":"clinic","operator_type":"private","name":"Homeopathic Davakhana","name_hindi":"होम्योपैथिक दवाखाना","address":"A-33,Chandra Nagar,Mr9 Road,Indore","mobile":"9826868297","opening_hours":"Mo-Sa 10:00-12:30;19:00-21:00","operator":"Dr Prashant Mandloi","personnel_count":1,"facilities":"General_Physician","rate_list":"no","ward_no":"044","ward_name":"H.I.G."},{"latitude":22.73695524,"longitude":75.89996692,"precision":4.288,"amenity":"clinic","operator_type":"private","name":"Dr S A Khan","name_hindi":"डॉ स ए खान","address":"158 Swarn Bagh Colony,Indore","mobile":"7828485487","opening_hours":"Mo-Sa 18:00-21:30","operator":"Dr S A Khan","personnel_count":1,"facilities":"General_Physician","rate_list":"no","ward_no":"037","ward_name":"SAI KRUPA"},{"latitude":22.73945346,"longitude":"75.9N/AN/A14133","precision":4.288,"amenity":"clinic","operator_type":"private","name":"Rai Clinic","name_hindi":"राई क्लीनिक ","address":"78-New Krishna Bagh Colony","mobile":"9977776481","opening_hours":"Mo-Sa 1N/A:N/AN/A-13:3N/A;18:N/AN/A-21:N/AN/A","operator":"Dr Surendra Kumar Rai","personnel_count":"N/A","facilities":"General_Physician","rate_list":"no"},{"latitude":22.74161945,"longitude":75.90017222,"precision":4.288,"amenity":"clinic","operator_type":"private","name":"Paras Homeopathic Clinic","name_hindi":"पारस होम्योपैथिक क्लीनिक","address":"118 H S Tower Mr9 Near C21 Mall ,Indore","mobile":"8770830342","opening_hours":"Mo-Sa 12:00-14:00; 19:00-21:00","operator":"Dr D C Jain","personnel_count":1,"facilities":"Neurologist","rate_list":"no","ward_no":"030","ward_name":"SANT RAVIDAS"},{"latitude":22.72389969,"longitude":75.87446196,"precision":8.576,"amenity":"clinic","operator_type":"private","operator":"Arya","personnel_count":2,"facilities":"General_Physician","rate_list":"no","ward_no":"047","ward_name":"SARDAR VALLABHBHAI"},{"latitude":22.71781963,"longitude":75.89629368,"precision":4.288,"amenity":"clinic","operator_type":"private","name":"Sparsh Wellness Clinic","name_hindi":" स्पर्श कल्याण क्लिनिक","address":"131,Tilak Nagar, Opp. Post Office,  Indore","mobile":"9827230642","opening_hours":"Mo-fr 9:30-12:30;18:00-21:00","operator":"Arpita Jain","personnel_count":2,"facilities":"Physiologist","rate_list":"no","ward_no":"049","ward_name":"TILAKNAGAR"},{"latitude":22.71675686,"longitude":75.89614059,"precision":4.288,"amenity":"clinic","operator_type":"private","name":"Pankaj Clinic","name_hindi":"पंकज क्लिनिक","address":"B-26 Bhaktavar Ram Nagar ,Indore","mobile":"9826578330","opening_hours":"Mo-fr 10: 00-12: 30","operator":"Dr Ramesh Dubey","personnel_count":2,"facilities":"Gynecologist","rate_list":"no","ward_no":"049","ward_name":"TILAKNAGAR"},{"latitude":22.71882249,"longitude":75.89630358,"precision":4.288,"amenity":"clinic","operator_type":"private","name":"Sunil Clinic","name_hindi":"सुनील क्लिनिक","address":"144 Tilak Nagar, Indore","mobile":"9425082424","opening_hours":"Mo-fr 9: 00-12: 00","operator":"Dr Sunil Agarwal","personnel_count":2,"facilities":"General_Physician","rate_list":"no","ward_no":"049","ward_name":"TILAKNAGAR"},{"latitude":22.71721694,"longitude":75.89578995,"precision":4.288,"amenity":"clinic","operator_type":"private","name":"Dr.  R.K Mital","name_hindi":"डॉ. आर. के. मित्तल","address":"14-A Bakhtawar Ram Nagar","mobile":"9826018240","opening_hours":"Mo-fr 18:00-20:00","operator":"Dr R K Mital","personnel_count":2,"facilities":"Endocrinologist","rate_list":"no","ward_no":"049","ward_name":"TILAKNAGAR"},{"latitude":22.71682061,"longitude":75.89580951,"precision":4.288,"amenity":"clinic","operator_type":"private","name":"Dr. Dilip Jain","name_hindi":"डॉ. दिलीप जैन","address":"10-B Bakhtawar Ram Nagar","mobile":"9827060437","opening_hours":"Mo-fr 7:00-9:00;18:00-21:00","operator":"Dr Dilip Jain","personnel_count":3,"facilities":"Pediatrician","rate_list":"no","ward_no":"049","ward_name":"TILAKNAGAR"},{"latitude":22.71529495,"longitude":75.89734409,"precision":3.216,"amenity":"clinic","operator_type":"private","name":"Dr.  M Raj","name_hindi":"डॉ. एम राज","address":"6-A Krishna Vihar Colony, Indore","mobile":"9926971441","opening_hours":"Mo-fr 10:00- 13:00; 18:00-21:00","operator":"Dr M Raj","personnel_count":2,"facilities":"General_Physician","rate_list":"no","ward_no":"049","ward_name":"TILAKNAGAR"},{"latitude":22.71598712,"longitude":75.89846963,"precision":3.216,"amenity":"clinic","operator_type":"private","name":"Dr. Ajay Doshi","name_hindi":"डॉ.  अजय दोषी","address":"3, Tilak Nagar, Main Road, Tilak Nagar, Indore","phone":"07314072596","mobile":"9827212596","opening_hours":"Mo-fr 11:00-14:00;18:00-21:00","operator":"Dr Ajay Doshi","personnel_count":2,"facilities":"Ophthalmologist","rate_list":"no","ward_no":"049","ward_name":"TILAKNAGAR"},{"latitude":22.71463773,"longitude":75.89577731,"precision":4.288,"amenity":"clinic","operator_type":"private","name":"Dr. G. S. Mittal","name_hindi":"डॉ.जी.एस.मित्तल","address":"D-45 Bakhtwar Ram Nagar, Indore","phone":"07312496449","mobile":"9826070257","opening_hours":"Mo-fr 10:00-12:00;18:00-20:30","operator":"Dr G S Mittal","personnel_count":2,"facilities":"General_Physician","rate_list":"no","ward_no":"049","ward_name":"TILAKNAGAR"},{"latitude":22.7168074,"longitude":75.90014416,"precision":4.288,"amenity":"clinic","operator_type":"private","name":"Dr. Shrivastava","name_hindi":"डॉ श्रीवास्तव","address":"7-A,  Sai Nath Colony,  Indore","phone":"07312491563","opening_hours":"Mo-fr 18:00-23:00","operator":"Dr Srivastava","personnel_count":3,"facilities":"Ophthalmologist","rate_list":"no","ward_no":"049","ward_name":"TILAKNAGAR"},{"latitude":22.7197712380439,"longitude":75.89550892822444,"precision":5,"amenity":"clinic","operator_type":"private","name":"Anand Homeo","name_hindi":"आनन्द होम्यो","address":"501, Surya Enclave, Tilak Nagar Main Road, Indore","mobile":"9993978811","opening_hours":"Mo-Sa 18:30-20:30; Su 15:00-17:00","operator":"Sachidanand Chobey","personnel_count":1,"facilities":"Homeopathy","rate_list":"no","ward_no":"042","ward_name":"SWAMI VIVEKANAND"},{"latitude":22.71285166666667,"longitude":75.88527833333333,"precision":0.9,"amenity":"clinic","operator_type":"private","name":"Dr Vishal Ratan Munjal","name_hindi":"ङा विशाल रतन मुंजाल","address":"3 Navratan Bagh, In Front Of Saint Paul Primary School","phone":"07312490175","opening_hours":"Mo-Sa 8:30-20:30","operator":"Dr Vishal Ratna Munjal","personnel_count":2,"facilities":"Ent","rate_list":"no","ward_no":"055","ward_name":"SAUTH TUKOGANJ"},{"latitude":22.71301166666666,"longitude":75.88412833333334,"precision":1,"amenity":"clinic","operator_type":"private","name":"Dr Jyoti Bunglowala","name_hindi":"ङा ज्योति बंगलोवाला","address":"2, Residency Arcade, A B Road","phone":"07314215630","opening_hours":"Mo-Sa 11:00-14:00; Mo-Fr 16:00-18:00 ","operator":"Dr Jyoti Bunglowala","personnel_count":2,"facilities":"Gynecologist, Obstetrician","rate_list":"no","ward_no":"055","ward_name":"SAUTH TUKOGANJ"},{"latitude":22.70974833333333,"longitude":75.88447833333333,"precision":0.9,"amenity":"clinic","operator_type":"private","name":"Dr Prakash Singhal","name_hindi":"ङा प्रकाश सिंघल","address":"White Church Colony Main Road","mobile":"9827388677","opening_hours":"Mo-Sa 9:30-12:30; 17:30-21:30","operator":"Dr Prakash Singhal","personnel_count":2,"facilities":"General_Physician","rate_list":"no","ward_no":"055","ward_name":"SAUTH TUKOGANJ"},{"latitude":"22.7N/A98783333333","longitude":75.88941166666667,"precision":1.2,"amenity":"clinic","operator_type":"private","name":"Dr P G Rahman","name_hindi":"ङा पी जी रमन","address":"72 Dhar Kothi","phone":"N/A73127N/AN/A438","opening_hours":"Mo-Sa N/A9:N/AN/A-11:N/AN/A; 17:N/AN/A-19:N/AN/A","operator":"Dr P G Raman, Dr Ansuya Raman","personnel_count":"N/A","facilities":"Endocrinologist, Gynecologist","rate_list":"no"},{"latitude":22.70783626,"longitude":75.87548822,"precision":4.5509996,"amenity":"clinic","operator_type":"private","name":"Abha Clinic Yu","name_hindi":"आभा क्लिनिक","address":"95 Rnt Marg Chhawni,Indore","phone":"07312561342","opening_hours":"Mo-Sa 10:30-13:00","operator":"Shalinata Agarwal","personnel_count":1,"facilities":"Gynecologist","rate_list":"no","ward_no":"063","ward_name":"NAVLAKHA"},{"latitude":22.71072904,"longitude":75.87572506,"precision":4.5509996,"amenity":"clinic","operator_type":"private","name":"Kusum Dental Clinic","name_hindi":"कुसुम डेंटल क्लिनिक","address":"143 Rnt Marg,Chhawni,Indore","phone":"07312702908","opening_hours":"Mo-Sa 19:00-20:30","operator":"Ramesh Atoliya, Kusum Atoliya","personnel_count":4,"facilities":"Dentist,  ","rate_list":"no","ward_no":"055","ward_name":"SAUTH TUKOGANJ"},{"latitude":22.7101636,"longitude":75.87819197,"precision":4.5509996,"amenity":"clinic","operator_type":"private","name":"Dr. R Palsikar","name_hindi":"डॉ आर पालिसकर","address":"105 Royal House Building Society,11/3 Ushaganj,Indore","mobile":"9826065083","opening_hours":"Mo-Sa 10:00-13:00","operator":"Rajesh Palsikar","personnel_count":2,"facilities":"Ophthalmologist","rate_list":"no","ward_no":"055","ward_name":"SAUTH TUKOGANJ"},{"latitude":22.71169848,"longitude":75.87786113,"precision":4.5509996,"amenity":"clinic","operator_type":"private","name":"Rk Eye & Retina Centre","name_hindi":"आर के ऑय & रेटिना सेन्टर","address":"138 Jalta Compound,Indore","phone":"07312705058","opening_hours":"Mo-Sa 10:00-17:00;18:00-19:30","operator":"Rajendra Agrwal","personnel_count":9,"facilities":"Ophthalmologist","rate_list":"no","ward_no":"055","ward_name":"SAUTH TUKOGANJ"},{"latitude":22.71160955,"longitude":75.87936293,"precision":4.5509996,"amenity":"clinic","operator_type":"private","name":"Women Health Clinic","name_hindi":"वीमेन हेल्थ क्लिनिक","address":"152 Jaora Compound,Indore","mobile":"9826063536","opening_hours":"Mo-Sa 15:00-18:00","operator":"Mamta Bansal","personnel_count":4,"facilities":"Gynecologist","rate_list":"no","ward_no":"055","ward_name":"SAUTH TUKOGANJ"},{"latitude":22.71128991,"longitude":75.88046251,"precision":4.5509996,"amenity":"clinic","operator_type":"private","name":"Dr. Sonal Shroff","name_hindi":"डॉ सोनल श्रॉफ","address":"Ground Floor,Urvashi Complex,3 Jaora Compound,Indore","phone":"07312701513","opening_hours":"Mo-Sa 12:00-13:30;18:00-20:00","operator":"Manish Shroff, Urvashi Shroff","personnel_count":4,"facilities":"Gynecologist","rate_list":"no","ward_no":"055","ward_name":"SAUTH TUKOGANJ"},{"latitude":22.71285368,"longitude":75.87900159,"precision":6.068,"amenity":"clinic","operator_type":"private","name":"Goyal Other & Chlid Care","name_hindi":"गोयल ऑर्थो & चाइल्ड केअर","address":"33 Jawra Compound,Indore","mobile":"9827393199","opening_hours":"Mo-Sa 10:00-21:00","operator":"Mukesh Pawar, Yashwant Pawar","personnel_count":4,"facilities":"General_Physician","rate_list":"no","ward_no":"055","ward_name":"SAUTH TUKOGANJ"},{"latitude":22.71002746,"longitude":75.87761653,"precision":4.5509996,"amenity":"clinic","operator_type":"private","name":"Khare Skin Clinic","name_hindi":"खरे स्किन क्लिनिक","address":"Betaal Complex,Jawra Compound,Indore","phone":"07312704244","opening_hours":"Mo-Sa 16:00-20:00","operator":"Sanjay Khare","personnel_count":2,"facilities":"Dermatologist","rate_list":"no","ward_no":"055","ward_name":"SAUTH TUKOGANJ"},{"latitude":22.7100928,"longitude":75.87746539,"precision":4.5509996,"amenity":"clinic","operator_type":"private","name":"Dr. Pushpa Purohit","name_hindi":"डॉ पुष्प पुरोहित","address":"Ground Floor,Betala Compound,Indore","phone":"07312703828","opening_hours":"Mo-Fr 12:00-15:00","operator":"Pushpa Purohit, Prakash Purohit","personnel_count":2,"facilities":"Gynecologist","rate_list":"no","ward_no":"055","ward_name":"SAUTH TUKOGANJ"},{"latitude":22.71899578,"longitude":75.89819498,"precision":3,"amenity":"clinic","operator_type":"private","name":"Dr.Dharmendra Jhawar","name_hindi":"डॉ.धर्मेंद्र झवर","address":"362,Tilak Nagar,Street No.9","phone":"07312496119","mobile":"9425076119","opening_hours":"Mo-Fr 10:00-12:00;18:00-22:00\nSu 10:00-12:00;18:00-22:00","operator":"Dharmendra Jhawar","personnel_count":2,"facilities":"Cardiologist, Gynecologist","rate_list":"no","ward_no":"049","ward_name":"TILAKNAGAR"},{"latitude":22.71901841,"longitude":75.89821622,"precision":5,"amenity":"clinic","operator_type":"private","name":"Dr.Ruchita Jhawar","name_hindi":"डॉ.रुचिता झवर","address":"Tilak Nagar,Street No.9","phone":"07312496119","opening_hours":"Mo-Sa 10:00-12:00;18:00-22:00","operator":"Ruchita Jhawar","personnel_count":1,"facilities":"Gynecologist,  ","rate_list":"no","ward_no":"049","ward_name":"TILAKNAGAR"},{"latitude":22.71777706,"longitude":75.89721967,"precision":5,"amenity":"clinic","operator_type":"private","name":"Dr.Atul Karande","name_hindi":"डॉ. अतुल कारांडे","address":"Tilak Nagar","operator":"Atul Karande, Jyoti Karande","personnel_count":2,"facilities":"Cardiologist, Gynecologist","rate_list":"no","ward_no":"049","ward_name":"TILAKNAGAR"},{"latitude":22.71916012,"longitude":75.89594584,"precision":5,"amenity":"clinic","operator_type":"private","name":"Dr.Madhukar Gupta","name_hindi":"डॉ. मधुकर गुप्ता","address":"76,Tilak Nagar","mobile":"9827031418","opening_hours":"Mo-Sa 10:00-13:00;18:00-21:00\nSu 10:00-13:00","operator":"Madhukar Gupta","personnel_count":2,"facilities":"General_Physician","rate_list":"no","ward_no":"049","ward_name":"TILAKNAGAR"},{"latitude":22.71922918,"longitude":75.89597423,"precision":5,"amenity":"clinic","operator_type":"private","name":"Dr.Kalpana Jain","name_hindi":"डॉ.कल्पना जैन","address":"108,Tilak Nagar","mobile":"8319861070","opening_hours":"Mo-Su 10:00-14:00;17:00-20:00","operator":"Kalpana Jain","personnel_count":1,"facilities":"Gynecologist","rate_list":"no","ward_no":"049","ward_name":"TILAKNAGAR"},{"latitude":22.71958042,"longitude":75.89569407,"precision":5,"amenity":"clinic","operator_type":"private","name":"Dr.Jayesh U Shah","name_hindi":"डॉ.जयेश यू शाह","address":"501,Surya Enclave,Tilak Nagar","mobile":"9827009472","opening_hours":"Mo-Sa 12:30-15:00;18:30-21:00","operator":"Jayesh U Shah","personnel_count":1,"facilities":"Orthopedic, Surgeon","rate_list":"no","ward_no":"049","ward_name":"TILAKNAGAR"},{"latitude":22.71907861,"longitude":75.89621656,"precision":5,"amenity":"clinic","operator_type":"private","name":"The Homeopathy","address":"Ug 5,Classic Centre,Tilak Nagar","mobile":"9826054283","opening_hours":"Mo-Sa 18:00-21:00","operator":"Dr Pk Chobey, Dr Mrs M Chobey","personnel_count":2,"facilities":"Homeopathic","rate_list":"no","ward_no":"049","ward_name":"TILAKNAGAR"},{"latitude":22.71913098,"longitude":75.8963185,"precision":5,"amenity":"clinic","operator_type":"private","name":"Dr.Harish Torani","name_hindi":"डॉ.हरीश तोरानी","address":"Ug 5,Classic Centre,Tilak Nagar","opening_hours":"Mo-Sa 9:30-12:30","operator":"Harish Torani","personnel_count":1,"facilities":"General_Physician","rate_list":"no","ward_no":"049","ward_name":"TILAKNAGAR"},{"latitude":22.71908825,"longitude":75.89649465,"precision":5,"amenity":"clinic","operator_type":"private","name":"New Shri Ji Homeo Link","address":"Lg 3,Classic Centre,Tilak Nagar,Main Road","mobile":"9826941122","opening_hours":"Mo-Sa 10:13:00;17:00-20:00","operator":"Dr Ragini Singh, Dr Dheeraj Patidar","personnel_count":3,"facilities":"Homeopathic","rate_list":"no","ward_no":"049","ward_name":"TILAKNAGAR"},{"latitude":22.71972695,"longitude":75.9015053,"precision":3,"amenity":"clinic","operator_type":"private","name":"Homeopathy Arc","address":"Anurag Nagar,Indore","mobile":"9926046999","operator":"Dr Vishal Porwal","personnel_count":1,"facilities":"Homeopathy","rate_list":"no","ward_no":"049","ward_name":"TILAKNAGAR"},{"latitude":22.71588552,"longitude":75.89986856,"precision":5,"amenity":"clinic","operator_type":"private","name":"Aradhya'S Homeopathic Clinic And Skin Care","address":"17-A Vandana Nagar,Pipliyahana","mobile":"8120408751","operator":"Dr Neetu Singh, Dr Amit Singh","personnel_count":2,"facilities":"Homeopathic, Consultant","rate_list":"no","ward_no":"049","ward_name":"TILAKNAGAR"},{"latitude":22.71454829,"longitude":75.90001979,"precision":5,"amenity":"clinic","operator_type":"private","name":"Dr.Bb Tripathi","name_hindi":"डॉ. बी बी त्रिपाठी","address":"1 C Vandana Nagar","mobile":"9826016496","opening_hours":"Mo-Su 18:30-21:30","operator":"Bb Tripathi","personnel_count":1,"facilities":"General_Physician","rate_list":"no","ward_no":"049","ward_name":"TILAKNAGAR"},{"latitude":22.71458532,"longitude":75.90018634,"precision":4,"amenity":"clinic","operator_type":"private","name":"Dr.Anurag Panwel","name_hindi":"डॉ.अनुराग पनवेल","address":"28-B Vandana Nagar,Ext.","mobile":"7566526006","opening_hours":"Mo-Sa 10:00-12:00;19:00-21:00","operator":"Anurag Panwel","personnel_count":1,"facilities":"Orthopedic","rate_list":"no","ward_no":"049","ward_name":"TILAKNAGAR"},{"latitude":22.71460779,"longitude":75.90043288,"precision":3,"amenity":"clinic","operator_type":"private","name":"Family Health Clinic","name_hindi":"फैमिली हेल्थ क्लिनिक","address":"27-B Vandana Nagar,Indore","operator":"Dr Umesh Nandanwar, Dr Dimple Nandanwar","personnel_count":2,"facilities":"Cardiologist, Gynecologist, Pediatrician","rate_list":"no","ward_no":"049","ward_name":"TILAKNAGAR"},{"latitude":22.71698602,"longitude":75.89541921,"precision":3,"amenity":"clinic","operator_type":"private","name":"Dr.Pradeep Saraf","name_hindi":"डॉ.प्रदीप सराफ","address":"Sector A ,Bhakhtawar Ram Nagar,Tilak Nagar,Indore","opening_hours":"Mo-Sa 8:00-900;19:00-21:00","operator":"Pradeep Saraf","personnel_count":1,"facilities":"Orthopedic, Surgeon","rate_list":"no","ward_no":"049","ward_name":"TILAKNAGAR"},{"latitude":22.71483398,"longitude":75.89369957,"precision":5,"amenity":"clinic","operator_type":"private","name":"Dr.Sudhir Morya","name_hindi":"डॉ. सुधीर मौर्य","address":"113-114 Geeta Nagar,Main Road,Indore","mobile":"9685828097","opening_hours":"Mo-Su 17:30-20:30","operator":"Sudhir Morya, Shivani Morya","personnel_count":2,"facilities":"Cardiologist, Ophthalmologist","rate_list":"no","ward_no":"048","ward_name":"GITA BHAVAN"},{"latitude":22.71529734,"longitude":75.89248929,"precision":5,"amenity":"clinic","operator_type":"private","name":"Dr.Rajeev Kelkar","name_hindi":"डॉ. राजीव केलकर","address":"65,Greater Tirupati Colony,Indore","mobile":"9893385790","opening_hours":"Mo-Sa 18:30-20:30","operator":"Rajeev Kelkar, Yeshwant V Kelkar","personnel_count":2,"facilities":"Gynecologist,  ","rate_list":"no","ward_no":"048","ward_name":"GITA BHAVAN"},{"latitude":22.71530494,"longitude":75.89252274,"precision":5,"amenity":"clinic","operator_type":"private","name":"Dr.Vj Rajput","name_hindi":"डॉ. वि जे राजपूत","address":"67,Greater Tirupati,Indore","opening_hours":"Mo-Sa 19:00-21:00","operator":"Vj Rajput, Nitin Rajput","personnel_count":2,"facilities":"Pediatrician","rate_list":"no","ward_no":"048","ward_name":"GITA BHAVAN"},{"latitude":22.71038227,"longitude":75.88397168,"precision":4.5509996,"amenity":"clinic","operator_type":"private","name":"Dr. Sushil Mandowara","name_hindi":"डॉ. सुशील मंडोवरा","address":"16, White Church Colony, Indore","phone":"0731475455","operator":"Dr Sushil Mandowara, Dr Hemant Mandowara, Dr Nupur Mandowara, ","personnel_count":1,"facilities":"Allergist,  ","rate_list":"no","ward_no":"055","ward_name":"SAUTH TUKOGANJ"},{"latitude":"22.71N/A23126","longitude":75.88499633,"precision":"4.55N/A9996","amenity":"clinic","operator_type":"private","name":"Dr. Ashok Ladha","name_hindi":"डॉ. अशोक लाधा","address":"9, White Church Colony, Indore","phone":"N/A73127N/A21N/A4","opening_hours":"Mo-Fr 18:N/AN/A-2N/A:N/AN/A","operator":"Dr Ashok Ladha","personnel_count":"N/A","facilities":"Surgeon,, Gastroenterologist","rate_list":"no"},{"latitude":"22.7N/A837228","longitude":75.88922188,"precision":"4.55N/A9996","amenity":"clinic","operator_type":"private","name":"Dr. Salil Bhargava","name_hindi":"डॉ. सलिल भार्गव","address":"76, Dhar Kothi, Indore","mobile":"9827N/A6N/A4N/A4","opening_hours":"Mo-Sa 18:N/AN/A-2N/A:3N/A","operator":"Dr Salil Bhargava","personnel_count":"N/A","facilities":"Chest, Physician","rate_list":"no"},{"latitude":22.71817441,"longitude":75.88452709,"precision":5,"amenity":"clinic","operator_type":"private","name":"Dr Ashok Vajpayee Clinic","name_hindi":"डॉ अशोक वाजपेई क्लीनिक","address":"20-21 Alankar Point, Near Ambedkar Statue, Geeta Bhawan Road","phone":"07312492220","opening_hours":"Mo-Sa 18:00-20:00","operator":"Dr Ashok Vajpayee","personnel_count":2,"facilities":"General_Physician","rate_list":"no","ward_no":"048","ward_name":"GITA BHAVAN"},{"latitude":22.7182982,"longitude":75.8849339,"precision":5,"amenity":"clinic","operator_type":"private","name":"Dr Ajay Agrawal","name_hindi":"डॉ अजय अग्रवाल","address":"Alankar Point","mobile":"9826052808","opening_hours":"Mo-Sa 11:00-13:00 + 18:00-20:30","operator":"Dr Ajay Agrawal","personnel_count":2,"facilities":"General_Physician","rate_list":"no","ward_no":"048","ward_name":"GITA BHAVAN"},{"latitude":22.71283921,"longitude":75.88329676,"precision":5,"amenity":"clinic","operator_type":"private","name":"Dr Shikha Ghanghoriya","name_hindi":"डॉ शिक्षा घांघोरिया","address":"Mgm College Campus","opening_hours":"Mo-Su 10:00-15:00","operator":"Dr Shikha Ghanghoriya, Dr Arvind Ghanghoriya","personnel_count":5,"facilities":"Leproscopy\nGastro, Surgery","rate_list":"no","ward_no":"055","ward_name":"SAUTH TUKOGANJ"},{"latitude":22.71740722,"longitude":75.88405519,"precision":5,"amenity":"clinic","operator_type":"private","name":"Central Clinic","name_hindi":"सेंट्रल क्लीनिक","address":"A B Road Geeta Bhawan","phone":"07316633111","opening_hours":"Mo-Su 08:00-14:00","operator":"Central Lab Centre","personnel_count":4,"facilities":"General_Physician","rate_list":"no","ward_no":"055","ward_name":"SAUTH TUKOGANJ"},{"latitude":22.7173457,"longitude":75.883992,"precision":4,"amenity":"clinic","operator_type":"private","name":"Dr Shreemati Madhu Sharma","name_hindi":"डॉ श्रीमती मधु शर्मा","address":"Geeta Bhawan Road","mobile":"9425065680","opening_hours":"Mo-Su 11:00-16:00","operator":"Dr Madhu Sharma","personnel_count":3,"facilities":"Women, Health, Specialist","rate_list":"no","ward_no":"055","ward_name":"SAUTH TUKOGANJ"},{"latitude":22.71802745,"longitude":75.88267444,"precision":4,"amenity":"clinic","operator_type":"private","name":"Dr Rahul Mathur'S Anand Neuropsychiatric Clinic","name_hindi":"डॉ राहुल माथुर आनंद न्यूरोसायकियात्रिक क्लीनिक","address":"B/14, Ratlam Kothi","mobile":"6269291000","opening_hours":"Mo-Sa 09:00-16:00","operator":"Dr Rahul Mathur, Dr Poonam Mathur, Dr Rajkumar Mathur, ","personnel_count":8,"facilities":"Gynecologist, Neurologist, Obstetrician, Urologist,  ","rate_list":"no","ward_no":"055","ward_name":"SAUTH TUKOGANJ"},{"latitude":22.71798717,"longitude":75.88273868,"precision":9,"amenity":"clinic","operator_type":"private","name":"Dr Praful Dubey","name_hindi":"डॉ प्रफुल दुबे","address":"15/B Ratlam Kothi Compound","mobile":"8358071245","website":"www.myvestige.com","opening_hours":"Mo-Su 18:00-20:30","operator":"Dr Praful Dubey","personnel_count":3,"facilities":"General_Physician","rate_list":"no","ward_no":"055","ward_name":"SAUTH TUKOGANJ"},{"latitude":22.71805042,"longitude":75.88279711,"precision":5,"amenity":"clinic","operator_type":"private","name":"Dr Arvind Dave Clinic","name_hindi":"डॉ अरविंद दवे क्लीनिक","address":"961, Kanchan Bagh, Geeta Bhawan Road","opening_hours":"Mo-Su 10:00-16:30","operator":"Dr Arvind Dave, Dr Anupama Dave","personnel_count":4,"facilities":"Cancer, Specialist","rate_list":"no","ward_no":"055","ward_name":"SAUTH TUKOGANJ"},{"latitude":22.7178483,"longitude":75.88242691,"precision":5,"amenity":"clinic","operator_type":"private","name":"Dr Mukesh Birla","name_hindi":"डॉ मुकेश बिरला","address":"Sakar Bhawan, Geeta Bhawan Road","phone":"07312522346","opening_hours":"Mo-Sa 10:30-14:00 + 17:30-20:00","operator":"Dr Mukesh Birla, Dr Suman Birla","personnel_count":3,"facilities":"Infant, Specialist","rate_list":"no","ward_no":"055","ward_name":"SAUTH TUKOGANJ"},{"latitude":22.71496689,"longitude":75.88573424,"precision":9,"amenity":"clinic","operator_type":"private","name":"Ent Specialist","name_hindi":"ई एन टी स्पेशलिस्ट","address":"Geeta Bhawan Road","phone":"07314007039","opening_hours":"Mo-Su 19:30-20:30","operator":"Dr Brajendra Baser","personnel_count":8,"facilities":"Ent","rate_list":"no","ward_no":"048","ward_name":"GITA BHAVAN"},{"latitude":22.72625525,"longitude":75.87944261,"precision":3.216,"amenity":"clinic","operator_type":"private","name":"Sodani Diagnostic Clinic","name_hindi":"सोडानी डायग्नोस्टिक क्लिनिक","address":"16/1 Mourya Centre Race Course Road","phone":"07316638281","operator":"Dr Bharat Jain","personnel_count":10,"facilities":"Radiologist,  ","rate_list":"no","ward_no":"047","ward_name":"SARDAR VALLABHBHAI"},{"latitude":22.72400549,"longitude":75.87432944,"precision":3.216,"amenity":"clinic","operator_type":"private","name":"Dr Malay Kumart","name_hindi":"डॉ मलय कुमात","address":"M 16/7 Starlet Tower Indore","phone":"07312545404","opening_hours":"Mo-Fr 17:30-19:30","operator":"Dr Malay Kumat","personnel_count":2,"facilities":"Orthopaedic","rate_list":"no","ward_no":"047","ward_name":"SARDAR VALLABHBHAI"},{"latitude":22.72306097,"longitude":75.87419845,"precision":9.648001,"amenity":"clinic","operator_type":"private","name":"Dr Nilesh Jain","name_hindi":"डॉ नीलेश जैन","address":"Yashwant Niwas Road Indore","phone":"07312536373","operator":"Dr Nilesh Jain","personnel_count":1,"facilities":"Gynecologist","rate_list":"no","ward_no":"047","ward_name":"SARDAR VALLABHBHAI"},{"latitude":22.72161173,"longitude":75.87209258,"precision":9.648001,"amenity":"clinic","operator_type":"private","name":"Dr J S Kathpal","name_hindi":"डॉ जे एस कथपाल","address":"Dhenu Market Indore","phone":"07312536363","opening_hours":"19:00-21:00","operator":"Dr Js Jathpal","personnel_count":1,"facilities":"Neurologist","rate_list":"no","ward_no":"047","ward_name":"SARDAR VALLABHBHAI"},{"latitude":22.71785828,"longitude":75.88249815,"precision":7.504,"amenity":"clinic","operator_type":"private","name":"Total Fertility Solutions","name_hindi":"टोटल फर्टिलिटी सॉल्यूशन्स","address":"Sarkar Bhavan, Near Ratlam Kothi","phone":"07312517999","mobile":"9826419771","website":"www.totalfertilitysolutioms.com","email":"totalfertilitysolutions@gmail.com","opening_hours":"Mo-Sa 10:00-13:00; Mo-Sa 18:00-21:00","operator":" Shivani Joshi,  Sankalp Joshi","personnel_count":6,"facilities":"Urologist,  ","rate_list":"no","ward_no":"055","ward_name":"SAUTH TUKOGANJ"},{"latitude":22.71881133,"longitude":75.88667975,"precision":4.288,"amenity":"clinic","operator_type":"private","name":"Dr. Kaushalendra Verma","address":"101, Mahasagar Corporate, Geeta Bhaav Main Road Indore","phone":"07312492032","mobile":"9826643040","opening_hours":"Mo-Sa 9:00-21:00","operator":"Kaushlendra Verma","personnel_count":3,"facilities":"General_Physician","rate_list":"no","ward_no":"048","ward_name":"GITA BHAVAN"},{"latitude":22.71889213,"longitude":75.88668774,"precision":4.288,"amenity":"clinic","operator_type":"private","name":"Alpha Clinic","name_hindi":"अल्फा क्लिनिक","address":"Pragati Apartment 1 Floor Geeta Bhawan Main Road","phone":"07312494099","mobile":"7415199915","operator":"Snehlata Khasgiwala","personnel_count":2,"facilities":"General_Physician","rate_list":"no","ward_no":"048","ward_name":"GITA BHAVAN"},{"latitude":22.71881399,"longitude":75.88669491,"precision":4.288,"amenity":"clinic","operator_type":"private","name":"Dr. Tanya Agrawal","name_hindi":"दोफ तान्या अग्रवाल","address":"Pragati Apartment 1 Floor Geeta Bhavan Main Road","mobile":"9669227760","opening_hours":"Mo-Sa 10:30-13:00","operator":"Tanya Agrawal, Ishant Kumar","personnel_count":3,"facilities":"Gynecologist","rate_list":"no","ward_no":"048","ward_name":"GITA BHAVAN"},{"latitude":22.71661483,"longitude":75.88490937,"precision":4.288,"amenity":"clinic","operator_type":"private","name":"Dr. Sanjay Maheshwari","name_hindi":"डॉ संजय मशेश्वरी","address":"Residency Area Near Manormaganj","opening_hours":"Mo-Sa 10:00-13:00","operator":"Sanjay Maheshwari","personnel_count":3,"facilities":"Obstetrician","rate_list":"no","ward_no":"048","ward_name":"GITA BHAVAN"},{"latitude":22.70766351,"longitude":75.87743176,"precision":11,"amenity":"clinic","operator_type":"private","name":"Raj Clinic","name_hindi":"राज क्लिनिक","address":"Parsi Mohalla","opening_hours":"Mo-Su 10:00-2:00;18:00-21:30","operator":"Dr Shekhar Gupta, Dr Gaurav Gupta","personnel_count":3,"facilities":"General_Physician","rate_list":"no","ward_no":"063","ward_name":"NAVLAKHA"},{"latitude":22.70760731,"longitude":75.8772019,"precision":13,"amenity":"clinic","operator_type":"private","name":"Vimal Netralaya","name_hindi":"विमल नेत्रालय","address":"6 Parsi Mohalla Main Road","phone":"07312700666","opening_hours":"Mo-Su 11:00-17:30","operator":"Doctor Hemant Doshi","personnel_count":2,"facilities":"Ophthalmologist","rate_list":"no","ward_no":"063","ward_name":"NAVLAKHA"},{"latitude":22.70798136,"longitude":75.87618803,"precision":5,"amenity":"clinic","operator_type":"private","name":"Surgical Clinic","name_hindi":"सर्जिकल क्लिनिक","address":"31 Parsi Mohalla Main Road","opening_hours":"Mo-Su 18:00-20:00","operator":"Dr Gd Goyal","personnel_count":2,"facilities":"Surgeon, ","rate_list":"no","ward_no":"063","ward_name":"NAVLAKHA"},{"latitude":22.7077436,"longitude":75.87547218,"precision":10,"amenity":"clinic","operator_type":"private","name":"Dr Rg Bansal Clinic","name_hindi":"डॉ। आरजी बंसल क्लिनिक","address":"111 Rnt Marg Chhawani","opening_hours":"Mo-Sa 9:30-13:00;19:00-21:00","operator":"Dr Rg Bansal","personnel_count":2,"facilities":"General_Physician","rate_list":"no","ward_no":"063","ward_name":"NAVLAKHA"},{"latitude":22.70746477,"longitude":75.8752942,"precision":10,"amenity":"clinic","operator_type":"private","name":"Dr. Anupam Gupta Clinic","name_hindi":"डॉ। अनुपम गुप्ता क्लिनिक","address":"76 Rnt Marg","mobile":"9406613979","opening_hours":"Mo - Sa 10:00-13:00;18:00-20:00","operator":"Raghvi Gupta, Anupam Gupta","personnel_count":2,"facilities":"Pediatrician,  ","rate_list":"no","ward_no":"063","ward_name":"NAVLAKHA"},{"latitude":22.70879257,"longitude":75.87381057,"precision":5,"amenity":"clinic","operator_type":"private","name":"Veer Bajrang Mandir Clinic","name_hindi":"वीर बजरंग मंदिर क्लिनिक","address":"Sabji Mandi Chhawani","mobile":"9009079818","opening_hours":"Mo-Su 9:30-13:00;18:00-20:00","operator":" Dr Mohan Sharma","personnel_count":1,"facilities":"General_Physician","rate_list":"no","ward_no":"062","ward_name":"RAVJI BAZAR"},{"latitude":22.70860079,"longitude":75.87520646,"precision":5,"amenity":"clinic","operator_type":"private","name":"Manish Maheshwari Clinic","name_hindi":"मनीष माहेश्वरी क्लिनिक","address":"Shradhanand Marg","mobile":"9392627378","opening_hours":"Mo-Sa 11:00-13:00;17:00-19:00","operator":"Dr Manish Maheshwari, Dr Charu Maheshwari","personnel_count":2,"facilities":"Gynecologist, Obstetrician","rate_list":"no","ward_no":"062","ward_name":"RAVJI BAZAR"},{"latitude":22.70972132,"longitude":75.87545609,"precision":5,"amenity":"clinic","operator_type":"private","name":"Pal Nursing Home","name_hindi":"पाल नर्सिंग होम","address":"17Rnt Marg","mobile":"8839411348","opening_hours":"24/7","operator":"Dr Kamal H Singh","personnel_count":5,"facilities":"Gynecologist","rate_list":"no","ward_no":"055","ward_name":"SAUTH TUKOGANJ"},